     2.11           OBSERVATION DATA    M (MIXED)           RINEX VERSION / TYPE
teqc  2019Feb25     NGS Web             20231110 19:32:41UTCPGM / RUN BY / DATE
Linux 2.4.21-27.ELsmp|Opteron|gcc|Linux 64|=+               COMMENT
teqc  2019Feb25     NOAA/NOS/NGS/CORS   20231110 02:12:04UTCCOMMENT
+36.181669728 (latitude)                                    COMMENT
-075.75133202 (longitude)                                   COMMENT
-24.7749      (elevation)                                   COMMENT
+.000000      (antenna height)                              COMMENT
BIT 2 OF LLI FLAGS DATA COLLECTED UNDER A/S CONDITION       COMMENT
 SNR is mapped to RINEX snr flag value [0-9]                COMMENT
  L1 & L2: min(max(int(snr_dBHz/6), 0), 9)                  COMMENT
teqc.e edited: all SBAS satellites excluded                 COMMENT
teqc.e edited: all QZSS satellites excluded                 COMMENT
NCDU                                                        MARKER NAME
49846M001                                                   MARKER NUMBER
Bart Alligood       NCGS                                    OBSERVER / AGENCY
6039R40019          TRIMBLE ALLOY       5.44                REC # / TYPE / VERS
60393G0007          TRM115000.00    NONE                    ANT # / TYPE
  1268583.6010 -4995546.6620  3744466.5730                  APPROX POSITION XYZ
        0.0000        0.0000        0.0000                  ANTENNA: DELTA H/E/N
     1     1                                                WAVELENGTH FACT L1/2
    11    L1    L2    L5    C1    P1    C2    P2    C5    S1# / TYPES OF OBSERV
          S2    S5                                          # / TYPES OF OBSERV
     1.0000                                                 INTERVAL
teqc.w windowed: start @ 2023 Nov  9 00:00:00.000           COMMENT
teqc.w windowed:  end  @ 2023 Nov 10 00:00:00.000           COMMENT
  2023    11     9     0     0    0.0000000     GPS         TIME OF FIRST OBS
    18                                                      LEAP SECONDS
                                                            END OF HEADER
 23 11  9 13  5 53.0000000  0 28G05G10G13G15G18G23G24G27G29G32R05R06
                                R07R08R09R15R16R20R21R22R23E03E07E08
                                E13E15E26E33
 124210897.005 7  96787636.194 6                  23636559.531
  23636562.387    23636561.859                          45.000          39.500

 127136857.812 7  99067666.157 7  94939835.486 7  24193341.820
  24193344.824    24193345.699    24193341.207          42.000          42.100
        45.700
 120522819.315 7  93913801.47044                  22934739.477
                  22934741.164                          43.000          26.500

 106841198.417 8  83252875.745 8                  20331209.016
  20331208.738    20331208.262                          48.900          48.200

 107155582.669 8  83497853.649 8  80018776.178 9  20391033.844
  20391032.559    20391032.758    20391034.063          48.800          53.900
        56.400
 112587779.114 7  87730740.946 8  84075285.659 8  21424747.273
  21424746.828    21424746.758    21424748.082          47.000          49.100
        51.400
 111477023.368 7  86865239.756 8  83245838.728 8  21213370.961
  21213373.918    21213373.906    21213371.430          46.400          48.500
        52.200
 129123869.934 6 100616109.656 6  96423757.759 7  24571488.922
  24571491.891    24571491.871    24571489.426          40.000          39.800
        45.100
 128056518.505 6  99784188.249 6                  24368361.117
  24368364.891    24368365.285                          40.100          38.400

 134733859.907 6 104987464.115 5 100612974.342 6  25639007.164
  25639013.473    25639012.965    25639011.277          38.000          35.900
        37.600
 131374097.882 7 102179833.161 6                  24576310.070    24576309.250
  24576312.801    24576312.508                          42.300          37.900

 108347788.133 6                                  20304320.055    20304318.461
                                                        38.400

 109590471.449 8  85237038.961 8                  20472425.789    20472425.734
  20472424.375    20472423.867                          50.300          48.200

 127267870.845 6  98986140.477 5                  23766380.039    23766379.883
  23766379.367    23766379.188                          40.600          31.400

 129629887.223 6 100823162.189 6                  24275513.148    24275511.781
  24275517.680    24275516.844                          36.100          37.000

 125898102.484 7  97920764.967 6                  23560113.477    23560112.965
  23560115.113    23560114.934                          43.200          41.300

 122267413.316 7  95096920.194 7                  22888707.289    22888706.773
  22888708.730    22888708.652                          44.700          42.600

 127478315.33015  99149541.67915                  23839093.609    23839088.953
  23839096.328    23839096.219                          30.400          32.700

 106198370.034 8  82598717.292 8                  19845673.906    19845672.969
  19845670.820    19845671.281                          50.700          49.400

 107718859.051 8  83781321.584 8                  20179377.664    20179376.797
  20179373.336    20179373.605                          50.200          49.300

 129757910.566 6                                  24256876.016    24256877.004
                                                        38.000

 151232218.736 6                 112933112.517 6  28778548.992
                                  28778552.875          37.700
        41.000
 123514263.859 8                  92234661.451 8  23503984.773
                                  23503982.883          48.200
        52.200
 128980681.665 8                  96316715.435 8  24544212.742
                                  24544209.688          49.600
        49.800
 124734654.874 8                  93145989.813 8  23736220.055
                                  23736218.648          48.300
        51.500
 144810511.190 6                 108137690.824 6  27556539.453
                                  27556543.887          41.000
        39.700
 126378736.434 8                  94373694.194 8  24049076.641
                                  24049072.719          49.100
        50.600
 146926455.702 6                 109717773.716 6  27959182.797
                                  27959181.527          40.900
        41.500
 23 11  9 13  5 54.0000000  0 28G05G10G13G15G18G23G24G27G29G32R05R06
                                R07R08R09R15R16R20R21R22R23E03E07E08
                                E13E15E26E33
 124213395.116 7  96789582.761 6                  23637035.273
  23637037.801    23637037.234                          45.300          39.800

 127134380.835 7  99065736.025 6  94937985.798 7  24192871.297
  24192873.941    24192874.496    24192869.820          42.300          41.600
        45.900
 120526142.364 7  93916390.85944                  22935372.117
                  22935373.598                          43.500          27.500

 106842855.395 8  83254166.901 8                  20331524.516
  20331524.051    20331523.496                          48.800          48.100

 107155087.861 8  83497468.082 9  80018406.673 9  20390939.266
  20390938.621    20390938.492    20390939.930          49.100          54.100
        56.400
 112586104.729 7  87729436.230 8  84074035.302 8  21424428.469
  21424428.000    21424428.137    21424429.438          47.200          48.600
        51.200
 111474935.178 7  86863612.609 8  83244279.367 8  21212973.320
  21212976.727    21212976.480    21212974.129          46.700          48.700
        51.900
 129122956.422 6 100615397.846 6  96423075.592 7  24571315.383
  24571318.059    24571317.973    24571315.570          40.400          40.000
        45.200
 128059891.552 6  99786816.574 6                  24369002.461
  24369007.000    24369007.168                          40.200          38.600

 134730765.496 6 104985052.862 6 100610663.575 6  25638419.016
  25638424.379    25638424.004    25638422.242          38.800          36.300
        38.100
 131377195.106 6 102182242.123 6                  24576889.422    24576888.223
  24576892.832    24576891.969                          41.400          38.300

 108349390.762 6                                  20304620.609    20304619.035
                                                        38.600

 109589412.955 8  85236215.677 7                  20472228.047    20472228.020
  20472226.699    20472226.063                          50.300          47.500

 127265159.370 6  98984031.539 5                  23765874.352    23765873.711
  23765874.207    23765872.922                          40.200          30.800

 129626291.195 6 100820365.309 6                  24274838.570    24274838.641
  24274843.402    24274843.289                          36.200          36.500

 125898564.377 7  97921124.218 6                  23560200.297    23560199.547
  23560201.574    23560201.516                          43.200          41.600

 122264986.793 7  95095032.895 7                  22888252.969    22888252.227
  22888254.273    22888254.512                          44.600          42.600

 127482873.866 5  99153087.219 5                  23839943.828    23839942.070
  23839947.234    23839948.813                          30.400          32.600

 106200731.133 8  82600553.709 8                  19846115.438    19846113.996
  19846112.004    19846112.488                          50.300          49.300

 107717096.904 8  83779951.016 8                  20179047.047    20179046.465
  20179042.621    20179043.551                          50.100          49.400

 129753687.435 6                                  24256087.305    24256087.633
                                                        38.400

 151234826.050 6                 112935059.517 6  28779044.805
                                  28779049.102          38.900
        41.000
 123513681.326 8                  92234226.438 8  23503873.727
                                  23503872.012          48.300
        52.600
 128982484.869 8                  96318061.980 8  24544555.945
                                  24544552.832          49.700
        49.600
 124736069.731 8                  93147046.361 8  23736489.250
                                  23736487.902          48.600
        51.700
 144813458.116 6                 108139891.440 6  27557099.992
                                  27557104.555          40.900
        40.200
 126377289.402 8                  94372613.617 8  24048801.320
                                  24048797.379          49.300
        50.300
 146923602.737 6                 109715643.232 6  27958639.625
                                  27958638.668          41.300
        41.400
 23 11  9 13  5 55.0000000  0 28G05G10G13G15G18G23G24G27G29G32R05R06
                                R07R08R09R15R16R20R21R22R23E03E07E08
                                E13E15E26E33
 124215893.365 7  96791529.444 6                  23637510.836
  23637513.504    23637512.559                          45.600          39.900

 127131903.861 7  99063805.908 6  94936136.090 7  24192399.250
  24192402.457    24192403.094    24192398.551          42.100          41.400
        46.200
 120529465.542 7  93918980.34844                  22936004.438
                  22936005.949                          43.900          27.500

 106844512.792 8  83255458.373 8                  20331840.211
  20331839.453    20331838.949                          49.100          48.300

 107154593.658 8  83497082.981 9  80018037.625 9  20390845.438
  20390844.563    20390844.582    20390845.855          49.300          54.100
        56.600
 112584430.489 7  87728131.631 8  84072785.067 8  21424110.375
  21424109.656    21424109.508    21424110.887          47.500          48.400
        51.200
 111472847.578 7  86861985.905 8  83242720.437 8  21212575.719
  21212579.219    21212579.363    21212576.785          46.900          48.900
        51.900
 129122043.521 6 100614686.451 6  96422393.860 7  24571141.641
  24571144.957    24571144.492    24571141.813          39.400          39.900
        45.100
 128063264.588 6  99789444.930 6                  24369644.336
  24369648.840    24369649.109                          40.800          38.900

 134727671.201 6 104982641.724 5 100608352.877 6  25637829.648
  25637835.621    25637835.285    25637833.340          38.800          35.000
        37.800
 131380292.187 6 102184650.940 6                  24577468.750    24577467.699
  24577471.449    24577471.227                          41.500          38.400

 108350993.586 6                                  20304920.523    20304919.309
                                                        38.800

 109588354.775 8  85235392.651 7                  20472030.625    20472030.191
  20472028.227    20472028.398                          50.200          47.600

 127262448.135 6  98981922.850 5                  23765367.867    23765367.254
  23765366.438    23765366.621                          40.000          31.700

 129622695.039 6 100817568.311 6                  24274167.273    24274165.574
  24274168.836    24274169.746                          36.300          37.000

 125899027.013 7  97921484.056 6                  23560287.188    23560286.023
  23560287.227    23560288.074                          43.700          41.300

 122262560.762 7  95093145.985 7                  22887798.648    22887798.109
  22887800.367    22887800.480                          44.600          42.300

 127487432.535 4  99156632.809 5                  23840797.055    23840794.730
  23840800.332    23840801.402                          29.700          32.100

 106203093.023 8  82602390.725 8                  19846556.227    19846555.434
  19846553.559    19846553.938                          50.500          49.500

 107715335.557 8  83778581.085 8                  20178717.258    20178716.691
  20178713.008    20178713.574                          50.400          49.100

 129749464.478 6                                  24255297.789    24255297.992
                                                        37.800

 151237433.290 6                 112937006.474 6  28779541.242
                                  28779545.172          39.500
        41.200
 123513099.083 8                  92233791.651 8  23503763.078
                                  23503761.254          48.200
        52.500
 128984288.221 8                  96319408.624 8  24544899.172
                                  24544895.973          49.800
        49.900
 124737484.977 8                  93148103.197 8  23736758.750
                                  23736757.168          48.200
        51.700
 144816405.185 6                 108142092.162 6  27557660.656
                                  27557665.398          41.300
        39.900
 126375842.706 8                  94371533.289 8  24048525.828
                                  24048522.066          49.500
        50.500
 146920749.821 6                 109713512.822 6  27958097.102
                                  27958095.797          41.300
        41.500
 23 11  9 13  5 56.0000000  0 28G05G10G13G15G18G23G24G27G29G32R05R06
                                R07R08R09R15R16R20R21R22R23E03E07E08
                                E13E15E26E33
 124218391.773 7  96793476.261 6                  23637986.430
  23637988.926    23637987.789                          45.200          40.200

 127129426.878 7  99061875.810 6  94934286.412 7  24191928.000
  24191930.820    24191931.766    24191927.230          42.100          41.500
        46.300
 120532788.938 7  93921570.00244                  22936637.031
                  22936638.438                          43.600          27.800

 106846170.622 8  83256750.191 8                  20332155.773
  20332154.781    20332154.332                          48.600          48.400

 107154100.127 8  83496698.412 9  80017669.071 9  20390751.805
  20390750.500    20390750.559    20390751.996          49.100          54.300
        56.600
 112582756.458 7  87726827.191 8  84071534.973 8  21423791.688
  21423791.074    21423790.875    21423792.387          46.900          48.600
        51.100
 111470760.598 7  86860359.689 8  83241161.980 8  21212178.953
  21212182.113    21212182.203    21212179.633          46.800          48.900
        52.000
 129121131.241 6 100613975.600 6  96421712.615 7  24570967.727
  24570970.930    24570970.832    24570968.117          39.700          40.300
        45.100
 128066637.678 6  99792073.264 6                  24370286.461
  24370291.281    24370291.211                          40.900          39.100

 134724577.067 6 104980230.700 5 100606042.321 6  25637240.906
  25637246.836    25637246.563    25637244.367          38.600          35.500
        37.700
 131383389.176 6 102187059.698 6                  24578047.531    24578047.109
  24578050.410    24578050.605                          40.200          37.900

 108352596.682 6                                  20305221.328    20305219.633
                                                        38.800

 109587296.979 8  85234569.921 7                  20471833.523    20471832.523
  20471831.063    20471830.746                          50.200          47.800

 127259737.131 6  98979814.252 5                  23764861.695    23764861.055
  23764859.543    23764860.473                          40.100          32.100

 129619098.803 6 100814771.262 6                  24273492.891    24273491.824
  24273496.586    24273496.273                          36.800          37.100

 125899490.502 7  97921844.565 6                  23560373.172    23560372.430
  23560374.711    23560374.582                          43.100          41.400

 122260135.293 7  95091259.510 7                  22887344.078    22887344.215
  22887346.422    22887346.391                          44.400          43.100

 127491991.282 4  99160178.496 5                  23841647.609    23841647.285
  23841654.570    23841653.859                          29.700          32.100

 106205455.758 8  82604228.416 8                  19846998.430    19846997.055
  19846995.355    19846995.473                          50.200          49.300

 107713575.040 8  83777211.791 8                  20178387.086    20178386.840
  20178383.191    20178383.840                          50.200          49.000

 129745241.801 6                                  24254508.109    24254508.652
                                                        38.200

 151240040.481 6                 112938953.396 6  28780037.313
                                  28780041.453          39.600
        41.500
 123512517.200 8                  92233357.131 8  23503652.219
                                  23503650.496          48.300
        52.400
 128986091.780 8                  96320755.441 8  24545242.313
                                  24545239.129          49.800
        49.800
 124738900.667 8                  93149160.374 8  23737028.055
                                  23737026.637          48.200
        51.500
 144819352.397 6                 108144293.006 6  27558221.805
                                  27558226.199          40.800
        40.200
 126374396.401 8                  94370453.267 8  24048250.781
                                  24048246.898          49.100
        50.800
 146917896.982 6                 109711382.450 6  27957554.094
                                  27957552.945          41.200
        41.300
 23 11  9 13  5 57.0000000  0 28G05G10G13G15G18G23G24G27G29G32R05R06
                                R07R08R09R15R16R20R21R22R23E03E07E08
                                E13E15E26E33
 124220890.307 7  96795423.182 6                  23638461.594
  23638464.313    23638463.320                          45.200          40.500

 127126949.932 6  99059945.704 6  94932436.721 7  24191456.680
  24191459.512    24191460.363    24191455.715          41.800          41.400
        46.100
 120536112.472 7  93924159.76344                  22937269.109
                  22937270.914                          43.600          27.300

 106847828.866 8  83258042.327 8                  20332470.891
  20332470.387    20332469.902                          48.300          48.400

 107153607.219 8  83496314.324 9  80017300.990 9  20390657.828
  20390656.715    20390656.699    20390658.137          48.600          54.200
        56.800
 112581082.573 7  87725522.880 8  84070284.998 8  21423472.984
  21423472.559    21423472.418    21423473.715          46.800          48.600
        51.300
 111468674.203 7  86858733.915 8  83239603.959 8  21211782.117
  21211785.207    21211785.180    21211782.629          46.900          49.100
        52.200
 129120219.561 6 100613265.180 6  96421031.801 7  24570793.508
  24570797.316    24570797.305    24570794.586          39.500          39.900
        45.400
 128070010.735 6  99794701.648 6                  24370928.336
  24370933.301    24370933.031                          40.300          39.100

 134721483.060 6 104977819.792 5 100603731.869 6  25636652.234
  25636657.996    25636657.664    25636655.434          38.800          35.200
        38.100
 131386486.028 6 102189468.370 6                  24578627.430    24578626.469
  24578629.727    24578629.922                          40.100          37.900

 108354199.998 6                                  20305521.586    20305519.816
                                                        38.700

 109586239.521 8  85233747.467 7                  20471635.563    20471635.113
  20471634.133    20471633.297                          50.200          47.900

 127257026.334 6  98977705.860 5                  23764355.133    23764354.656
  23764354.711    23764354.355                          39.600          31.800

 129615502.476 6 100811974.086 6                  24272820.188    24272818.191
  24272823.563    24272822.730                          36.700          37.500

 125899954.814 7  97922205.669 6                  23560461.359    23560459.324
  23560461.484    23560461.547                          42.600          41.700

 122257710.376 7  95089373.465 7                  22886890.500    22886890.258
  22886891.832    22886892.344                          44.300          43.400

 127496550.063 4  99163724.240 5                  23842500.594    23842499.570
  23842506.289    23842506.227                          29.200          31.800

 106207819.315 8  82606066.728 8                  19847439.945    19847438.660
  19847437.105    19847437.066                          50.300          49.600

 107711815.331 8  83775843.134 8                  20178058.016    20178057.102
  20178053.633    20178054.207                          50.100          49.100

 129741019.300 6                                  24253720.180    24253719.289
                                                        38.100

 151242647.666 6                 112940900.296 6  28780533.383
                                  28780537.500          39.900
        41.800
 123511935.633 8                  92232922.840 8  23503541.539
                                  23503539.719          48.200
        52.200
 128987895.500 8                  96322102.376 8  24545585.586
                                  24545582.320          49.700
        49.900
 124740316.762 8                  93150217.839 8  23737297.430
                                  23737296.086          48.300
        51.600
 144822299.739 6                 108146493.929 6  27558782.422
                                  27558787.207          41.200
        39.900
 126372950.438 8                  94369373.482 8  24047975.586
                                  24047971.711          49.100
        50.700
 146915044.213 6                 109709252.123 6  27957011.398
                                  27957010.152          40.900
        41.400
 23 11  9 13  5 58.0000000  0 28G05G10G13G15G18G23G24G27G29G32R05R06
                                R07R08R09R15R16R20R21R22R23E03E07E08
                                E13E15E26E33
 124223388.953 7  96797370.172 6                  23638936.930
  23638939.293    23638939.008                          45.200          40.600

 127124472.904 6  99058015.560 6  94930587.011 7  24190985.602
  24190988.328    24190988.941    24190984.441          41.900          41.400
        46.200
 120539436.119 7  93926749.61844                  22937902.141
                  22937903.480                          44.000          28.000

 106849487.479 8  83259334.740 8                  20332786.563
  20332785.891    20332785.672                          48.000          48.100

 107153114.887 8  83495930.692 8  80016933.339 9  20390564.281
  20390563.133    20390563.098    20390564.457          48.600          53.800
        56.700
 112579408.824 7  87724218.648 8  84069035.115 8  21423154.703
  21423153.996    21423153.926    21423155.301          47.200          49.000
        51.400
 111466588.354 7  86857108.584 8  83238046.338 8  21211385.039
  21211388.313    21211388.238    21211385.773          46.800          49.400
        51.800
 129119308.432 6 100612555.205 6  96420351.419 7  24570620.508
  24570623.887    24570623.805    24570621.199          39.900          39.700
        45.200
 128073383.777 6  99797329.971 6                  24371569.914
  24371574.910    24371574.805                          40.200          39.200

 134718389.156 6 104975408.967 5 100601421.493 6  25636063.141
  25636069.418    25636068.930    25636066.992          38.900          35.500
        38.100
 131389582.715 6 102191876.899 6                  24579206.484    24579205.969
  24579209.684    24579209.277                          39.500          37.600

 108355803.516 6                                  20305822.172    20305820.406
                                                        39.100

 109585182.437 8  85232925.277 8                  20471437.914    20471437.480
  20471436.082    20471435.809                          50.000          48.100

 127254315.686 6  98975597.541 5                  23763849.156    23763848.770
  23763847.359    23763848.172                          39.900          31.500

 129611906.008 6 100809176.835 6                  24272145.734    24272144.934
  24272149.375    24272149.449                          36.800          37.600

 125900419.856 7  97922567.379 6                  23560547.711    23560546.605
  23560548.547    23560548.621                          42.900          41.100

 122255285.941 7  95087487.791 7                  22886436.297    22886436.836
  22886437.715    22886438.617                          44.000          42.800

 127501108.938 5  99167270.010 5                  23843354.078    23843351.609
  23843359.395    23843358.957                          30.100          32.000

 106210183.636 8  82607905.647 8                  19847881.664    19847880.438
  19847878.422    19847879.074                          50.500          49.400

 107710056.406 8  83774475.074 8                  20177728.047    20177727.547
  20177724.082    20177724.652                          50.400          49.500

 129736797.000 6                                  24252930.109    24252929.844
                                                        38.000

 151245254.701 6                 112942847.087 6  28781029.383
                                  28781033.496          40.000
        41.800
 123511354.352 8                  92232488.771 8  23503430.961
                                  23503429.188          48.700
        52.300
 128989699.361 8                  96323449.403 8  24545928.656
                                  24545925.727          49.800
        50.200
 124741733.222 8                  93151275.584 8  23737567.047
                                  23737565.668          48.100
        51.300
 144825247.166 6                 108148694.915 6  27559343.492
                                  27559347.906          41.000
        39.700
 126371504.785 8                  94368293.932 8  24047700.461
                                  24047696.512          49.200
        50.500
 146912191.441 6                 109707121.820 6  27956468.586
                                  27956467.129          41.400
        41.400
 23 11  9 13  5 59.0000000  0 28G05G10G13G15G18G23G24G27G29G32R05R06
                                R07R08R09R15R16R20R21R22R23E03E07E08
                                E13E15E26E33
 124225887.691 7  96799317.245 6                  23639412.484
  23639414.766    23639414.496                          45.200          40.300

 127121995.848 6  99056085.393 6  94928737.272 7  24190514.086
  24190516.797    24190517.574    24190513.055          41.700          41.600
        46.400
 120542759.905 7  93929339.57144                  22938534.000
                  22938536.203                          44.300          27.800

 106851146.474 8  83260627.464 8                  20333102.641
  20333101.898    20333101.301                          48.300          48.300

 107152623.147 8  83495547.522 8  80016566.141 9  20390470.570
  20390469.535    20390469.594    20390470.926          48.700          53.600
        56.600
 112577735.192 7  87722914.519 8  84067785.330 8  21422836.289
  21422835.398    21422835.414    21422836.789          47.000          48.400
        51.500
 111464503.054 7  86855483.672 8  83236489.141 8  21210988.383
  21210991.441    21210991.492    21210988.906          46.900          49.500
        51.900
 129118397.890 6 100611845.700 6  96419671.463 7  24570447.336
  24570450.512    24570450.465    24570447.777          40.400          39.400
        45.100
 128076756.777 6  99799958.268 6                  24372211.992
  24372216.711    24372216.676                          39.400          39.000

 134715295.354 6 104972998.199 6 100599111.171 6  25635474.422
  25635480.852    25635480.195    25635478.453          39.200          36.000
        37.900
 131392679.234 6 102194285.295 6                  24579785.359    24579784.730
  24579788.289    24579788.590                          39.400          36.900

 108357407.202 6                                  20306122.508    20306121.293
                                                        38.900

 109584125.693 8  85232103.371 7                  20471241.156    20471240.000
  20471238.984    20471238.398                          50.100          47.500

 127251605.204 6  98973489.427 5                  23763343.234    23763342.430
  23763340.805    23763342.133                          39.700          32.100

 129608309.387 5 100806379.473 6                  24271472.398    24271470.602
  24271475.680    24271475.961                          35.800          36.400

 125900885.631 7  97922929.661 6                  23560634.273    23560634.051
  23560634.836    23560635.723                          43.000          41.000

 122252861.956 7  95085602.467 7                  22885982.891    22885982.957
  22885984.188    22885984.789                          44.500          43.200

 127505667.800 5  99170815.791 5                  23844205.273    23844203.707
  23844213.383    23844211.535                          30.400          32.200

 106212548.695 8  82609745.136 8                  19848324.039    19848322.578
  19848321.117    19848321.035                          50.400          48.900

 107708298.252 8  83773107.619 8                  20177399.242    20177398.297
  20177394.594    20177395.246                          50.200          49.700

 129732574.836 6                                  24252140.227    24252140.477
                                                        37.900

 151247861.632 6                 112944793.837 6  28781525.367
                                  28781529.668          40.800
        41.600
 123510773.349 8                  92232054.900 8  23503320.422
                                  23503318.648          48.800
        52.700
 128991503.344 8                  96324796.538 8  24546272.086
                                  24546268.941          49.900
        50.300
 124743150.047 8                  93152333.599 8  23737836.617
                                  23737835.184          48.000
        51.200
 144828194.701 6                 108150896.004 6  27559904.156
                                  27559908.777          41.300
        39.600
 126370059.446 8                  94367214.615 8  24047425.344
                                  24047421.551          49.300
        50.600
 146909338.726 6                 109704991.525 6  27955925.617
                                  27955924.262          41.200
        41.500
 23 11  9 13  6  0.0000000  0 28G05G10G13G15G18G23G24G27G29G32R05R06
                                R07R08R09R15R16R20R21R22R23E03E07E08
                                E13E15E26E33
 124228386.605 7  96801264.446 6                  23639888.047
  23639890.691    23639890.008                          44.600          39.600

 127119518.815 7  99054155.220 7  94926887.514 7  24190042.508
  24190045.648    24190046.313    24190041.621          42.100          42.100
        46.200
 120546083.843 7  93931929.64644                  22939166.242
                  22939168.645                          43.400          27.300

 106852805.882 8  83261920.513 8                  20333418.250
  20333417.441    20333417.063                          48.400          48.500

 107152132.051 8  83495164.846 8  80016199.403 9  20390376.992
  20390376.133    20390376.129    20390377.469          48.600          53.800
        56.400
 112576061.733 7  87721610.527 8  84066535.667 8  21422517.414
  21422516.848    21422517.102    21422518.457          46.900          48.700
        51.600
 111462418.361 7  86853859.244 8  83234932.395 8  21210591.805
  21210594.617    21210594.742    21210592.270          47.000          49.600
        51.700
 129117487.954 6 100611136.640 6  96418991.960 7  24570274.094
  24570277.633    24570277.309    24570274.676          39.700          39.400
        45.400
 128080129.793 6  99802586.578 6                  24372854.117
  24372858.492    24372858.438                          39.400          38.700

 134712201.687 6 104970587.571 6 100596800.980 6  25634886.563
  25634892.355    25634891.617    25634889.691          39.500          36.300
        37.900
 131395775.600 6 102196693.586 6                  24580365.305    24580364.313
  24580367.516    24580367.738                          38.800          36.900

 108359011.139 6                                  20306423.484    20306421.406
                                                        38.600

 109583069.335 8  85231281.766 8                  20471043.781    20471042.750
  20471041.500    20471041.059                          50.000          48.000

 127248894.952 6  98971381.434 5                  23762837.320    23762836.336
  23762835.613    23762836.113                          39.900          32.100

 129604712.638 6 100803582.023 5                  24270799.281    24270796.965
  24270801.461    24270802.344                          36.600          34.600

 125901352.226 7  97923292.535 6                  23560721.313    23560721.246
  23560722.699    23560723.008                          42.300          41.300

 122250438.492 7  95083717.559 7                  22885529.664    22885529.117
  22885531.145    22885531.008                          44.800          43.400

 127510226.860 4  99174361.680 5                  23845058.898    23845055.906
  23845066.320    23845064.125                          29.900          32.400

 106214914.516 8  82611585.213 8                  19848765.891    19848764.563
  19848762.832    19848763.102                          50.200          48.300

 107706540.909 8  83771740.800 8                  20177069.648    20177069.152
  20177065.469    20177066.086                          49.800          49.700

 129728352.876 6                                  24251351.680    24251351.402
                                                        38.000

 151250468.545 6                 112946740.545 6  28782021.781
                                  28782025.809          40.600
        41.500
 123510192.677 8                  92231621.275 8  23503209.797
                                  23503208.207          48.400
        52.600
 128993307.517 8                  96326143.800 8  24546615.359
                                  24546612.258          49.900
        50.000
 124744567.289 8                  93153391.929 8  23738106.156
                                  23738104.898          48.000
        51.100
 144831142.367 6                 108153097.182 6  27560464.984
                                  27560469.797          41.200
        39.800
 126368614.456 8                  94366135.572 8  24047150.281
                                  24047146.605          49.300
        50.900
 146906486.057 6                 109702861.282 6  27955383.180
                                  27955381.453          41.600
        41.700
 23 11  9 13  6  1.0000000  0 28G05G10G13G15G18G23G24G27G29G32R05R06
                                R07R08R09R15R16R20R21R22R23E03E07E08
                                E13E15E26E33
 124230885.643 7  96803211.745 6                  23640363.469
  23640366.000    23640365.621                          45.200          39.500

 127117041.757 7  99052225.072 7  94925037.780 7  24189571.109
  24189574.227    24189574.969    24189570.246          42.300          42.200
        46.200
 120549407.937 7  93934519.84444                  22939799.133
                  22939801.273                          43.100          26.900

 106854465.718 8  83263213.898 8                  20333733.492
  20333733.227    20333732.953                          48.400          48.700

 107151641.599 8  83494782.664 9  80015833.157 9  20390283.828
  20390282.934    20390282.738    20390284.102          49.200          54.100
        56.400
 112574388.455 7  87720306.670 8  84065286.133 8  21422199.516
  21422198.438    21422198.793    21422199.984          47.000          48.500
        51.400
 111460334.272 7  86852235.279 8  83233376.090 8  21210194.938
  21210198.246    21210198.238    21210195.684          47.000          49.100
        51.900
 129116578.624 6 100610428.063 6  96418312.910 7  24570101.508
  24570104.512    24570104.215    24570101.504          40.200          38.900
        44.700
 128083502.809 6  99805214.909 6                  24373495.734
  24373500.512    24373500.320                          39.900          38.500

 134709108.198 6 104968177.038 6 100594490.885 6  25634296.984
  25634303.035    25634303.074    25634301.070          39.600          36.300
        38.000
 131398871.862 6 102199101.809 6                  24580943.469    24580943.727
  24580947.195    24580946.922                          38.700          37.500

 108360615.304 6                                  20306724.000    20306722.309
                                                        39.200

 109582013.381 8  85230460.461 8                  20470846.047    20470845.508
  20470844.051    20470843.695                          49.800          48.100

 127246184.949 6  98969273.650 5                  23762331.063    23762330.301
  23762330.832    23762329.949                          40.300          32.000

 129601115.808 6 100800784.455 5                  24270125.172    24270123.617
  24270128.238    24270128.375                          38.300          35.700

 125901819.617 7  97923656.084 6                  23560809.594    23560808.844
  23560810.051    23560810.586                          43.000          40.900

 122248015.556 7  95081833.058 7                  22885076.141    22885075.668
  22885076.898    22885077.484                          45.100          43.200

 127514785.930 5  99177907.660 5                  23845911.008    23845908.793
  23845916.727    23845916.574                          30.100          32.400

 106217281.156 8  82613425.932 7                  19849207.883    19849206.750
  19849204.746    19849205.336                          50.200          47.900

 107704784.396 8  83770374.631 8                  20176740.367    20176739.906
  20176736.660    20176737.063                          49.500          49.900

 129724131.117 6                                  24250561.852    24250562.242
                                                        37.800

 151253075.386 6                 112948687.203 6  28782518.078
                                  28782521.973          40.600
        41.800
 123509612.336 8                  92231187.903 8  23503099.453
                                  23503097.691          48.500
        52.600
 128995111.856 8                  96327491.201 8  24546958.695
                                  24546955.641          49.900
        50.100
 124745984.941 8                  93154450.565 8  23738376.031
                                  23738374.719          48.100
        51.300
 144834090.190 6                 108155298.457 6  27561025.836
                                  27561030.801          41.200
        40.000
 126367169.833 8                  94365056.794 8  24046875.359
                                  24046871.715          49.400
        50.900
 146903633.464 6                 109700731.073 6  27954840.133
                                  27954838.559          41.900
        41.500
 23 11  9 13  6  2.0000000  0 28G05G10G13G15G18G23G24G27G29G32R05R06
                                R07R08R09R15R16R20R21R22R23E03E07E08
                                E13E15E26E33
 124233384.833 7  96805159.145 6                  23640839.242
  23640841.594    23640841.203                          44.600          39.600

 127114564.711 7  99050294.884 6  94923188.017 7  24189099.625
  24189103.141    24189103.512    24189099.059          42.100          41.900
        46.300
 120552732.207 7  93937110.18144                  22940432.063
                  22940433.898                          43.400          27.100

 106856125.948 8  83264507.585 8                  20334049.813
  20334049.445    20334048.938                          48.600          49.000

 107151151.748 8  83494400.969 8  80015467.355 9  20390190.688
  20390189.590    20390189.375    20390190.867          48.900          53.900
        56.400
 112572715.325 7  87719002.929 8  84064036.714 8  21421880.867
  21421880.344    21421880.309    21421881.563          47.500          48.300
        51.700
 111458250.749 7  86850611.752 8  83231820.213 8  21209798.625
  21209801.609    21209801.762    21209799.125          47.000          49.300
        52.000
 129115669.870 6 100609719.950 6  96417634.290 7  24569928.664
  24569931.930    24569931.281    24569928.547          39.200          39.000
        44.700
 128086875.821 6  99807843.220 6                  24374137.570
  24374141.668    24374142.055                          39.900          38.400

 134706014.805 6 104965766.591 5 100592180.872 6  25633708.586
  25633714.906    25633714.277    25633712.316          39.500          35.700
        37.900
 131401967.954 6 102201509.881 6                  24581524.023    24581523.570
  24581526.863    24581526.188                          39.200          37.300

 108362219.712 6                                  20307024.766    20307022.891
                                                        38.200

 109580957.726 8  85229639.392 7                  20470648.977    20470648.363
  20470647.238    20470646.680                          49.500          47.800

 127243475.120 6  98967165.979 5                  23761825.070    23761824.246
  23761824.250    23761823.848                          40.100          31.900

 129597518.801 6 100797986.820 5                  24269451.797    24269450.277
  24269453.938    24269454.645                          38.900          35.700

 125902287.771 7  97924020.193 6                  23560897.477    23560896.457
  23560897.875    23560898.148                          42.700          41.300

 122245593.128 7  95079948.946 7                  22884622.617    22884622.242
  22884623.270    22884624.168                          44.700          43.000

 127519345.090 5  99181453.652 5                  23846763.914    23846761.438
  23846769.270    23846769.211                          30.100          32.700

 106219648.602 8  82615267.283 7                  19849650.539    19849649.293
  19849647.672    19849647.754                          50.300          47.900

 107703028.670 8  83769009.063 8                  20176411.734    20176411.035
  20176407.113    20176408.207                          49.100          49.700

 129719909.556 6                                  24249774.203    24249773.234
                                                        38.100

 151255682.166 6                 112950633.816 6  28783013.813
                                  28783017.973          41.600
        41.500
 123509032.301 8                  92230754.760 8  23502988.883
                                  23502987.313          48.600
        52.600
 128996916.358 8                  96328838.715 8  24547302.211
                                  24547298.953          50.000
        50.300
 124747402.998 7                  93155509.504 8  23738645.813
                                  23738644.496          47.900
        51.100
 144837038.123 6                 108157499.846 6  27561586.875
                                  27561591.852          41.200
        39.700
 126365725.545 8                  94363978.265 8  24046600.422
                                  24046596.742          49.400
        51.100
 146900780.880 6                 109698600.928 6  27954296.938
                                  27954295.754          41.900
        41.300
 23 11  9 13  6  3.0000000  0 28G05G10G13G15G18G23G24G27G29G32R05R06
                                R07R08R09R15R16R20R21R22R23E03E07E08
                                E13E15E26E33
 124235884.161 7  96807106.679 6                  23641314.719
  23641317.031    23641316.875                          44.600          39.200

 127112087.659 7  99048364.720 6  94921338.288 7  24188628.203
  24188631.621    24188632.160    24188627.492          42.600          41.900
        46.200
 120556056.645 7  93939700.64744                  22941064.867
                  22941066.527                          43.500          27.100

 106857786.591 8  83265801.588 8                  20334365.453
  20334365.285    20334364.875                          48.800          48.900

 107150662.549 8  83494019.777 9  80015102.047 9  20390097.531
  20390096.484    20390096.371    20390097.773          49.000          54.000
        56.600
 112571042.349 7  87717699.318 8  84062787.424 8  21421562.234
  21421561.930    21421562.066    21421563.180          47.200          48.600
        51.600
 111456167.832 7  86848988.697 8  83230264.793 8  21209402.203
  21209405.211    21209405.418    21209402.809          47.300          49.100
        52.500
 129114761.760 6 100609012.306 6  96416956.153 7  24569755.516
  24569758.852    24569758.504    24569755.754          39.200          39.200
        45.000
 128090248.836 6  99810471.541 6                  24374779.328
  24374783.832    24374783.797                          39.900          37.800

 134702921.575 6 104963356.285 5 100589870.994 6  25633120.273
  25633126.465    25633125.664    25633123.695          39.400          35.700
        37.700
 131405063.941 6 102203917.884 6                  24582103.188    24582102.316
  24582105.434    24582105.273                          39.500          38.000

 108363824.340 6                                  20307324.898    20307323.719
                                                        38.400

 109579902.468 8  85228818.630 7                  20470451.547    20470450.996
  20470449.668    20470449.426                          49.100          47.800

 127240765.533 6  98965058.545 5                  23761317.805    23761318.188
  23761319.180    23761317.820                          39.900          31.800

 129593921.708 6 100795189.129 5                  24268777.703    24268777.145
  24268780.707    24268780.750                          39.700          35.600

 125902756.726 7  97924384.931 6                  23560984.992    23560984.035
  23560985.973    23560985.926                          43.100          41.100

 122243171.267 7  95078065.279 7                  22884168.617    22884168.832
  22884170.184    22884170.668                          44.600          42.800

 127523904.323 5  99184999.711 5                  23847615.969    23847614.258
  23847621.391    23847621.559                          30.600          32.600

 106222016.878 8  82617109.261 8                  19850092.758    19850091.531
  19850090.059    19850090.316                          50.500          48.100

 107701273.783 8  83767644.138 8                  20176083.203    20176082.480
  20176079.258    20176079.340                          49.300          49.800

 129715688.207 6                                  24248984.625    24248983.828
                                                        38.400

 151258288.902 6                 112952580.388 6  28783510.031
                                  28783513.914          41.500
        41.200
 123508452.589 8                  92230321.860 8  23502878.695
                                  23502877.031          48.300
        52.600
 128998721.049 8                  96330186.368 8  24547645.438
                                  24547642.477          50.000
        49.800
 124748821.467 8                  93156568.743 8  23738915.930
                                  23738914.484          48.000
        51.300
 144839986.181 6                 108159701.315 6  27562147.797
                                  27562153.039          41.200
        40.000
 126364281.610 8                  94362900.008 8  24046325.719
                                  24046321.992          49.000
        50.900
 146897928.409 7                 109696470.817 6  27953754.336
                                  27953752.875          42.000
        41.400
 23 11  9 13  6  4.0000000  0 28G05G10G13G15G18G23G24G27G29G32R05R06
                                R07R08R09R15R16R20R21R22R23E03E07E08
                                E13E15E26E33
 124238383.622 7  96809054.313 6                  23641790.875
  23641792.512    23641792.453                          44.400          39.500

 127109610.598 7  99046434.553 7  94919488.527 7  24188156.930
  24188160.094    24188160.871    24188156.086          43.200          42.100
        46.400
 120559381.230 7  93942291.22744                  22941696.805
                  22941699.039                          43.500          27.200

 106859447.674 8  83267095.941 8                  20334682.133
  20334681.238    20334681.000                          49.100          48.800

 107150173.977 8  83493639.070 9  80014737.212 9  20390004.680
  20390003.438    20390003.477    20390004.828          48.800          54.100
        56.600
 112569369.566 7  87716395.840 8  84061538.265 8  21421244.047
  21421243.531    21421243.594    21421244.797          47.200          48.700
        51.500
 111454085.506 7  86847366.103 8  83228709.809 8  21209005.633
  21209008.895    21209009.074    21209006.551          47.200          49.200
        52.400
 129113854.224 6 100608305.158 6  96416278.448 7  24569583.086
  24569586.285    24569585.844    24569583.039          39.200          39.000
        44.700
 128093621.865 6  99813099.865 6                  24375420.945
  24375425.633    24375425.578                          39.600          37.500

 134699828.499 6 104960946.055 5 100587561.206 6  25632531.266
  25632536.969    25632537.078    25632535.160          39.200          35.700
        37.900
 131408159.800 6 102206325.761 6                  24582681.914    24582681.469
  24582684.852    24582684.438                          39.700          38.800

 108365429.221 6                                  20307625.578    20307624.656
                                                        38.600

 109578847.560 8  85227998.158 7                  20470254.609    20470254.090
  20470252.922    20470252.477                          49.200          47.800

 127238056.150 6  98962951.218 5                  23760812.656    23760812.148
  23760812.715    23760811.926                          40.000          31.700

 129590324.502 6 100792391.331 6                  24268103.656    24268103.363
  24268107.727    24268107.035                          39.900          36.500

 125903226.440 7  97924750.271 6                  23561072.820    23561072.359
  23561073.668    23561073.918                          43.000          41.300

 122240749.921 7  95076181.994 7                  22883715.273    22883715.453
  22883716.715    22883717.324                          44.800          42.800

 127528463.701 5  99188545.857 5                  23848469.094    23848467.316
  23848475.246    23848474.207                          30.700          32.900

 106224385.943 8  82618951.871 7                  19850535.820    19850534.340
  19850531.848    19850533.125                          50.400          47.800

 107699519.693 8  83766279.854 8                  20175754.547    20175753.730
  20175750.031    20175750.813                          49.300          49.700

 129711467.080 6                                  24248194.555    24248194.988
                                                        38.300

 151260895.566 6                 112954526.919 6  28784005.852
                                  28784009.957          41.900
        41.400
 123507873.202 8                  92229889.199 8  23502768.586
                                  23502766.797          48.200
        52.500
 129000525.905 8                  96331534.144 8  24547989.016
                                  24547985.930          49.800
        50.000
 124750240.359 8                  93157628.301 8  23739185.844
                                  23739184.352          48.200
        51.500
 144842934.410 6                 108161902.896 6  27562708.906
                                  27562714.215          41.400
        40.200
 126362838.053 8                  94361822.018 8  24046051.117
                                  24046047.410          49.100
        50.800
 146895075.978 6                 109694340.745 6  27953211.563
                                  27953210.078          41.500
        41.600
 23 11  9 13  6  5.0000000  0 28G05G10G13G15G18G23G24G27G29G32R05R06
                                R07R08R09R15R16R20R21R22R23E03E07E08
                                E13E15E26E33
 124240883.124 7  96811001.970 6                  23642266.188
  23642268.492    23642268.250                          44.400          39.900

 127107133.431 7  99044504.281 7  94917638.693 7  24187685.359
  24187688.707    24187689.492    24187684.832          43.100          42.000
        46.000
 120562705.872 7  93944881.84944                  22942329.672
                  22942331.680                          43.800          27.400

 106861109.049 8  83268390.511 8                  20334998.219
  20334997.621    20334997.094                          48.700          48.200

 107149685.928 8  83493258.772 9  80014372.755 9  20389911.836
  20389910.734    20389910.402    20389911.977          49.000          54.000
        56.600
 112567696.822 7  87715092.408 8  84060289.140 8  21420925.883
  21420925.082    21420925.316    21420926.574          47.200          48.700
        51.800
 111452003.666 7  86845743.890 8  83227155.182 8  21208609.914
  21208612.766    21208612.980    21208610.426          47.000          48.900
        52.300
 129112947.182 6 100607598.376 6  96415601.124 7  24569409.977
  24569413.414    24569413.254    24569410.383          39.300          39.200
        44.600
 128096994.794 6  99815728.113 6                  24376063.406
  24376067.297    24376067.316                          40.100          37.500

 134696735.414 6 104958535.891 6 100585251.464 6  25631943.242
  25631948.875    25631948.426    25631946.469          38.700          36.100
        37.800
 131411255.455 6 102208733.485 6                  24583260.313    24583261.188
  24583263.555    24583263.660                          39.800          39.500

 108367034.246 6                                  20307925.711    20307925.031
                                                        38.300

 109577792.906 8  85227177.866 7                  20470057.914    20470057.059
  20470055.953    20470055.430                          49.100          47.900

 127235346.899 6  98960844.033 5                  23760306.469    23760306.336
  23760306.020    23760305.891                          39.900          31.900

 129586727.050 6 100789593.318 6                  24267430.852    24267430.121
  24267435.215    24267433.508                          40.300          37.300

 125903696.835 7  97925116.122 6                  23561160.422    23561160.234
  23561160.938    23561161.930                          42.600          41.100

 122238328.976 7  95074299.054 7                  22883262.047    22883262.313
  22883264.676    22883264.332                          44.800          42.500

 127533022.954 5  99192091.948 5                  23849321.391    23849319.984
  23849327.484    23849327.039                          31.000          33.200

 106226755.694 8  82620795.017 7                  19850978.570    19850977.180
  19850975.586    19850975.902                          50.300          47.900

 107697766.319 8  83764916.120 8                  20175425.711    20175425.223
  20175421.883    20175422.371                          49.400          49.600

 129707246.017 6                                  24247404.852    24247405.574
                                                        38.000

 151263502.050 7                 112956473.327 6  28784502.234
                                  28784505.910          42.200
        41.100
 123507294.032 7                  92229456.699 8  23502658.344
                                  23502656.594          47.800
        52.600
 129002330.816 8                  96332881.980 8  24548332.336
                                  24548329.398          49.600
        50.100
 124751659.530 8                  93158688.071 8  23739455.828
                                  23739454.520          48.500
        51.300
 144845882.641 6                 108164104.501 6  27563269.938
                                  27563275.133          41.400
        40.400
 126361394.724 8                  94360744.210 8  24045776.398
                                  24045772.793          49.000
        50.900
 146892223.524 6                 109692210.636 6  27952668.805
                                  27952667.426          41.300
        41.600
 23 11  9 13  6  6.0000000  0 28G05G10G13G15G18G23G24G27G29G32R05R06
                                R07R08R09R15R16R20R21R22R23E03E07E08
                                E13E15E26E33
 124243382.880 7  96812949.828 6                  23642741.766
  23642744.211    23642744.051                          44.700          40.200

 127104656.347 7  99042574.096 7  94915788.924 7  24187213.625
  24187217.480    24187218.102    24187213.508          43.100          42.300
        45.700
 120566030.779 7  93947472.67744                  22942962.539
                  22942964.418                          43.600          27.700

 106862770.951 8  83269685.501 8                  20335314.180
  20335313.703    20335313.461                          48.500          48.300

 107149198.629 8  83492879.052 9  80014008.854 9  20389819.250
  20389817.941    20389817.758    20389819.289          49.100          54.100
        56.700
 112566024.358 7  87713789.188 8  84059040.215 8  21420607.555
  21420606.961    21420607.082    21420608.270          47.100          48.800
        51.500
 111449922.516 7  86844122.217 8  83225601.080 8  21208213.641
  21208216.863    21208216.996    21208214.363          47.000          49.100
        52.100
 129112040.894 6 100606892.144 6  96414924.321 7  24569237.344
  24569241.313    24569240.672    24569238.113          39.400          38.700
        44.900
 128100367.812 6  99818356.456 6                  24376705.453
  24376709.207    24376708.953                          39.700          37.400

 134693642.574 6 104956125.927 6 100582941.898 6  25631354.336
  25631360.340    25631360.145    25631358.023          38.700          36.000
        37.700
 131414351.033 6 102211141.155 6                  24583840.305    24583840.285
  24583843.023    24583842.875                          40.000          39.500

 108368639.574 6                                  20308227.320    20308225.988
                                                        38.500

 109576738.735 8  85226357.950 7                  20469860.797    20469860.219
  20469858.750    20469858.539                          49.300          47.900

 127232637.955 6  98958737.065 5                  23759801.289    23759800.156
  23759800.406    23759800.102                          39.800          32.200

 129583129.595 6 100786795.305 6                  24266756.992    24266756.336
  24266760.621    24266760.086                          39.900          36.900

 125904168.162 7  97925482.722 6                  23561248.320    23561248.336
  23561249.980    23561250.023                          42.800          41.200

 122235908.680 7  95072416.604 7                  22882809.750    22882809.238
  22882810.203    22882811.129                          44.600          43.000

 127537582.458 5  99195638.189 5                  23850174.188    23850172.688
  23850181.313    23850179.707                          31.000          33.100

 106229126.368 8  82622638.870 8                  19851421.727    19851420.406
  19851418.703    19851418.867                          49.900          48.200

 107696013.869 8  83763553.092 8                  20175097.516    20175096.977
  20175093.168    20175094.109                          49.700          49.400

 129703025.243 6                                  24246616.281    24246616.684
                                                        37.500

 151266108.620 7                 112958419.765 6  28784998.219
                                  28785002.164          42.300
        41.200
 123506715.286 7                  92229024.522 8  23502548.258
                                  23502546.434          47.700
        52.400
 129004136.017 8                  96334230.011 8  24548675.734
                                  24548672.820          49.600
        50.200
 124753079.218 8                  93159748.232 8  23739725.953
                                  23739724.598          48.100
        51.700
 144848831.100 6                 108166306.279 6  27563831.148
                                  27563836.230          41.000
        40.400
 126359951.848 8                  94359666.733 8  24045501.773
                                  24045498.156          48.600
        50.600
 146889371.181 6                 109690080.666 6  27952126.102
                                  27952124.492          41.200
        41.600
 23 11  9 13  6  7.0000000  0 28G05G10G13G15G18G23G24G27G29G32R05R06
                                R07R08R09R15R16R20R21R22R23E03E07E08
                                E13E15E26E33
 124245882.694 7  96814897.725 6                  23643217.508
  23643219.949    23643219.652                          44.100          40.300

 127102179.198 7  99040643.829 7  94913939.102 7  24186742.852
  24186746.070    24186746.664    24186742.082          42.100          42.400
        45.600
 120569355.749 7  93950063.55944                  22943595.281
                  22943597.125                          43.800          26.900

 106864433.171 8  83270980.735 8                  20335630.570
  20335630.063    20335629.688                          48.300          48.300

 107148711.857 8  83492499.754 8  80013645.364 9  20389726.234
  20389725.348    20389725.234    20389726.602          49.100          53.800
        56.600
 112564351.968 7  87712486.032 8  84057791.348 8  21420289.266
  21420288.723    21420288.828    21420290.098          47.000          48.800
        51.600
 111447841.886 7  86842500.944 8  83224047.358 8  21207817.797
  21207820.906    21207821.020    21207818.387          47.300          49.200
        52.300
 129111135.108 6 100606186.322 6  96414247.910 7  24569064.719
  24569068.848    24569068.242    24569065.859          39.400          39.100
        45.000
 128103740.742 6  99820984.685 6                  24377346.992
  24377351.504    24377350.641                          39.500          37.300

 134690549.786 6 104953715.916 6 100580632.330 6  25630766.273
  25630771.680    25630771.625    25630769.535          39.200          36.000
        37.900
 131417446.424 6 102213548.681 6                  24584418.813    24584419.414
  24584422.023    24584421.992                          40.000          39.300

 108370245.078 6                                  20308528.461    20308526.848
                                                        38.500

 109575684.844 8  85225538.261 7                  20469663.883    20469663.234
  20469662.023    20469661.508                          49.500          47.800

 127229929.179 6  98956630.253 5                  23759295.406    23759294.500
  23759294.902    23759294.379                          39.800          32.700

 129579531.941 6 100783997.169 6                  24266082.836    24266082.785
  24266086.602    24266086.270                          39.800          37.300

 125904640.182 7  97925849.844 6                  23561337.883    23561337.340
  23561338.344    23561338.336                          43.000          41.300

 122233488.826 7  95070534.490 7                  22882355.672    22882355.992
  22882358.906    22882358.285                          44.500          43.000

 127542141.937 5  99199184.429 5                  23851026.695    23851025.613
  23851032.730    23851032.336                          31.000          33.200

 106231497.740 8  82624483.262 8                  19851864.664    19851863.406
  19851862.043    19851862.094                          49.600          48.400

 107694262.151 8  83762190.649 8                  20174769.281    20174768.824
  20174765.340    20174765.914                          49.400          49.900

 129698804.649 6                                  24245828.281    24245827.602
                                                        37.200

 151268715.014 6                 112960366.095 6  28785493.875
                                  28785498.082          41.700
        41.200
 123506136.779 8                  92228592.521 8  23502438.273
                                  23502436.328          48.100
        52.300
 129005941.299 8                  96335578.108 8  24549019.477
                                  24549016.363          49.500
        50.300
 124754499.235 8                  93160808.630 8  23739996.203
                                  23739994.934          48.300
        51.800
 144851779.610 6                 108168508.081 6  27564392.039
                                  27564397.332          41.100
        40.700
 126358509.245 8                  94358589.470 8  24045227.242
                                  24045223.609          49.200
        50.900
 146886518.865 6                 109687950.673 6  27951583.164
                                  27951581.688          41.100
        41.700
 23 11  9 13  6  8.0000000  0 28G05G10G13G15G18G23G24G27G29G32R05R06
                                R07R08R09R15R16R20R21R22R23E03E07E08
                                E13E15E26E33
 124248382.652 7  96816845.746 6                  23643693.414
  23643695.512    23643695.469                          44.000          40.600

 127099702.014 6  99038713.580 6  94912089.263 7  24186271.445
  24186274.605    24186275.086    24186270.797          41.800          41.800
        45.900
 120572680.891 7  93952654.57944                  22944227.914
                  22944229.980                          43.400          27.600

 106866095.800 8  83272276.286 8                  20335947.133
  20335946.598    20335945.977                          48.400          48.300

 107148225.718 8  83492120.938 9  80013282.325 9  20389633.719
  20389632.648    20389632.645    20389634.109          48.800          54.100
        56.700
 112562679.734 7  87711182.995 8  84056542.608 8  21419971.352
  21419970.891    21419970.449    21419971.805          47.000          48.800
        51.900
 111445761.836 7  86840880.123 8  83222494.081 8  21207421.992
  21207424.973    21207425.207    21207422.660          47.400          49.300
        52.100
 129110229.906 6 100605480.989 6  96413571.957 7  24568892.445
  24568896.277    24568896.043    24568893.777          39.100          39.400
        45.300
 128107113.678 6  99823612.955 6                  24377989.141
  24377993.145    24377992.566                          39.000          37.100

 134687457.164 6 104951306.085 5 100578322.894 6  25630177.211
  25630182.762    25630182.883    25630180.918          39.200          35.100
        38.000
 131420541.674 6 102215956.079 6                  24584998.398    24584998.508
  24585001.273    24585001.070                          40.000          39.400

 108371850.804 6                                  20308829.570    20308827.809
                                                        38.400

 109574631.323 8  85224718.854 7                  20469466.977    20469466.520
  20469465.742    20469464.738                          49.400          47.600

 127227220.629 6  98954523.593 5                  23758789.320    23758788.688
  23758788.941    23758788.594                          39.700          32.600

 129575934.189 6 100781198.918 6                  24265409.594    24265408.992
  24265413.207    24265412.582                          40.000          37.200

 125905113.002 7  97926217.600 6                  23561425.984    23561425.047
  23561426.367    23561426.668                          42.300          41.200

 122231069.477 7  95068652.789 7                  22881902.828    22881903.004
  22881904.656    22881905.211                          45.000          43.000

 127546701.452 5  99202730.731 5                  23851879.289    23851878.168
  23851885.039    23851884.973                          30.900          33.300

 106233869.883 8  82626328.261 8                  19852308.180    19852306.867
  19852304.602    19852305.305                          49.500          48.300

 107692511.230 8  83760828.828 8                  20174441.125    20174440.813
  20174437.469    20174437.852                          49.400          49.800

 129694584.234 6                                  24245040.086    24245038.879
                                                        37.600

 151271321.349 6                 112962312.385 6  28785990.297
                                  28785993.879          41.900
        40.900
 123505558.591 8                  92228160.757 8  23502328.211
                                  23502326.301          48.500
        52.600
 129007746.747 8                  96336926.332 8  24549362.914
                                  24549359.938          49.600
        50.500
 124755919.652 8                  93161869.331 8  23740266.531
                                  23740265.168          48.000
        51.600
 144854728.268 6                 108170709.984 6  27564953.141
                                  27564958.813          41.200
        40.700
 126357066.991 8                  94357512.460 8  24044952.828
                                  24044949.145          49.400
        50.700
 146883666.593 6                 109685820.721 6  27951040.367
                                  27951038.988          41.200
        41.900
 23 11  9 13  6  9.0000000  0 28G05G10G13G15G18G23G24G27G29G32R05R06
                                R07R08R09R15R16R20R21R22R23E03E07E08
                                E13E15E26E33
 124250882.723 7  96818793.838 6                  23644169.094
  23644171.609    23644171.297                          43.900          40.600

 127097224.800 7  99036783.278 6  94910239.390 7  24185799.906
  24185802.910    24185803.789    24185799.105          42.100          41.900
        45.800
 120576006.139 7  93955245.68644                  22944861.172
                  22944862.930                          43.700          27.200

 106867758.799 8  83273572.130 8                  20336263.609
  20336262.895    20336262.441                          48.500          48.500

 107147740.165 8  83491742.592 8  80012919.752 9  20389541.461
  20389540.328    20389540.359    20389541.707          49.000          53.900
        56.200
 112561007.638 7  87709880.053 8  84055293.959 8  21419652.828
  21419652.277    21419652.352    21419653.645          47.000          48.800
        51.700
 111443682.342 7  86839259.750 8  83220941.210 8  21207025.922
  21207029.418    21207029.410    21207026.852          47.200          49.300
        52.200
 129109325.276 6 100604776.079 6  96412896.424 7  24568721.133
  24568724.457    24568723.809    24568721.563          38.800          39.500
        44.700
 128110486.576 6  99826241.165 6                  24378630.336
  24378634.973    24378634.555                          39.500          37.100

 134684364.626 6 104948896.316 5 100576013.522 6  25629588.766
  25629594.766    25629594.414    25629592.465          39.100          35.400
        38.100
 131423636.770 6 102218363.363 6                  24585577.070    24585577.516
  24585579.605    24585580.027                          39.700          39.900

 108373456.707 6                                  20309130.727    20309128.711
                                                        38.800

 109573578.117 8  85223899.701 7                  20469270.773    20469269.688
  20469268.520    20469268.043                          49.100          47.500

 127224512.244 6  98952417.071 5                  23758283.766    23758282.906
  23758282.996    23758282.785                          40.000          32.200

 129572336.270 6 100778400.562 6                  24264735.078    24264735.105
  24264740.391    24264738.719                          40.000          37.300

 125905586.542 7  97926585.917 6                  23561514.477    23561513.918
  23561515.598    23561515.406                          42.900          41.100

 122228650.624 7  95066771.464 7                  22881449.930    22881450.230
  22881451.461    22881452.473                          44.700          42.900

 127551261.033 5  99206277.049 5                  23852732.266    23852731.102
  23852738.598    23852737.727                          30.800          32.600

 106236242.781 8  82628173.845 8                  19852751.664    19852750.016
  19852748.469    19852748.813                          49.600          48.100

 107690761.098 8  83759467.605 8                  20174113.664    20174113.027
  20174108.945    20174110.027                          49.700          49.900

 129690364.016 6                                  24244250.039    24244250.078
                                                        37.000

 151273927.597 7                 112964258.589 6  28786485.938
                                  28786490.164          42.200
        40.900
 123504980.674 8                  92227729.184 8  23502218.219
                                  23502216.398          48.300
        52.600
 129009552.325 8                  96338274.648 8  24549706.516
                                  24549703.465          49.500
        50.400
 124757340.438 8                  93162930.307 8  23740536.898
                                  23740535.488          48.000
        51.700
 144857677.013 6                 108172911.959 6  27565513.984
                                  27565519.852          40.700
        41.200
 126355625.049 8                  94356435.682 8  24044678.391
                                  24044674.707          49.300
        50.800
 146880814.320 6                 109683690.789 6  27950497.836
                                  27950496.289          41.300
        41.600
 23 11  9 13  6 10.0000000  0 28G05G10G13G15G18G23G24G27G29G32R05R06
                                R07R08R09R15R16R20R21R22R23E03E07E08
                                E13E15E26E33
 124253382.964 7  96820742.071 6                  23644644.648
  23644647.520    23644646.969                          44.400          40.400

 127094747.657 7  99034853.028 6  94908389.573 7  24185328.531
  24185331.797    24185332.363    24185327.758          42.500          41.700
        45.800
 120579331.607 7  93957836.95344                  22945493.242
                  22945495.758                          43.700          26.800

 106869422.274 8  83274868.337 8                  20336579.969
  20336579.504    20336579.098                          48.500          48.600

 107147255.310 8  83491364.782 8  80012557.678 9  20389449.063
  20389448.109    20389448.176    20389449.461          49.000          53.800
        56.200
 112559335.747 7  87708577.283 8  84054045.474 8  21419335.266
  21419334.188    21419334.258    21419335.445          47.200          48.500
        51.600
 111441603.486 7  86837639.861 8  83219388.823 8  21206630.422
  21206633.625    21206633.891    21206631.289          47.300          49.300
        51.700
 129108421.291 6 100604071.684 6  96412221.371 7  24568549.133
  24568552.438    24568551.859    24568549.664          38.800          39.400
        44.900
 128113859.518 6  99828869.425 6                  24379272.523
  24379276.961    24379276.285                          39.200          37.200

 134681272.285 6 104946486.698 5 100573704.330 6  25629000.148
  25629005.813    25629005.961    25629004.082          38.500          35.400
        38.300
 131426731.809 6 102220770.602 6                  24586155.898    24586156.313
  24586158.668    24586159.066                          39.200          40.100

 108375062.901 6                                  20309431.484    20309429.781
                                                        38.700

 109572525.324 8  85223080.861 7                  20469073.680    20469073.121
  20469071.711    20469071.336                          49.100          47.700

 127221804.128 6  98950310.776 5                  23757778.344    23757777.102
  23757777.563    23757777.152                          40.000          31.600

 129568738.315 6 100775602.147 6                  24264061.734    24264060.938
  24264065.418    24264064.930                          39.800          37.500

 125906060.953 7  97926954.885 6                  23561603.367    23561602.410
  23561603.539    23561604.352                          42.800          41.000

 122226232.332 7  95064890.570 7                  22880997.984    22880997.656
  22880998.895    22880999.840                          44.800          43.000

 127555820.717 5  99209823.494 5                  23853584.430    23853583.832
  23853589.602    23853590.230                          30.800          32.400

 106238616.585 8  82630020.129 8                  19853195.133    19853193.832
  19853192.227    19853192.375                          49.700          48.300

 107689011.821 8  83758107.061 8                  20173786.328    20173785.207
  20173781.391    20173782.336                          49.400          50.000

 129686144.045 6                                  24243461.117    24243461.336
                                                        37.300

 151276533.840 6                 112966204.808 6  28786982.016
                                  28786985.848          41.400
        40.600
 123504403.142 8                  92227297.910 8  23502108.266
                                  23502106.457          48.600
        52.200
 129011358.133 8                  96339623.137 8  24550050.344
                                  24550047.117          49.700
        50.500
 124758761.687 8                  93163991.625 8  23740807.313
                                  23740806.039          48.300
        51.700
 144860625.934 6                 108175114.082 6  27566075.609
                                  27566081.070          40.900
        41.000
 126354183.516 8                  94355359.210 8  24044404.141
                                  24044400.543          49.200
        50.900
 146877962.170 6                 109681560.944 6  27949954.969
                                  27949953.414          40.700
        41.600
 23 11  9 13  6 11.0000000  0 28G05G10G13G15G18G23G24G27G29G32R05R06
                                R07R08R09R15R16R20R21R22R23E03E07E08
                                E13E15E26E33
 124255883.324 7  96822690.427 6                  23645120.688
  23645123.234    23645122.938                          44.100          40.700

 127092270.469 7  99032922.751 6  94906539.729 7  24184857.633
  24184860.582    24184860.945    24184856.363          42.300          41.800
        46.100
 120582657.198 7  93960428.31544                  22946126.391
                  22946128.527                          43.700          28.000

 106871086.129 8  83276164.848 8                  20336896.891
  20336895.832    20336895.750                          48.600          48.300

 107146771.059 8  83490987.437 8  80012196.050 9  20389356.930
  20389355.840    20389355.918    20389357.301          48.800          53.600
        56.300
 112557664.008 7  87707274.628 8  84052797.100 8  21419016.352
  21419016.070    21419016.000    21419017.305          47.200          48.800
        51.700
 111439525.220 7  86836020.429 8  83217836.860 8  21206235.211
  21206238.273    21206238.523    21206235.824          47.500          48.800
        51.900
 129107517.893 6 100603367.731 6  96411546.754 7  24568377.461
  24568380.539    24568379.871    24568377.680          39.000          39.400
        44.900
 128117232.441 6  99831497.681 6                  24379914.156
  24379918.723    24379917.898                          39.400          37.100

 134678180.066 6 104944077.164 5 100571395.168 6  25628411.828
  25628417.473    25628417.656    25628415.688          39.000          35.800
        38.100
 131429826.692 6 102223177.709 6                  24586734.586    24586735.121
  24586738.148    24586737.949                          38.700          39.900

 108376669.294 6                                  20309732.547    20309730.707
                                                        38.900

 109571472.874 8  85222262.285 8                  20468877.125    20468876.586
  20468875.039    20468874.762                          49.000          48.100

 127219096.198 6  98948204.593 5                  23757271.758    23757271.066
  23757271.145    23757271.563                          39.800          31.800

 129565140.187 6 100772803.618 6                  24263388.430    24263387.293
  24263391.875    24263391.094                          39.200          38.200

 125906536.136 7  97927324.494 6                  23561692.180    23561691.977
  23561692.336    23561693.117                          43.400          41.100

 122223814.553 7  95063010.079 7                  22880545.047    22880545.191
  22880546.293    22880547.137                          44.700          43.300

 127560380.478 5  99213369.967 5                  23854438.055    23854436.570
  23854442.715    23854443.012                          30.500          31.600

 106240991.172 8  82631867.034 8                  19853638.867    19853637.633
  19853636.391    19853636.203                          49.900          48.400

 107687263.341 8  83756747.124 8                  20173458.367    20173457.695
  20173454.215    20173454.883                          49.700          50.100

 129681924.282 6                                  24242672.977    24242672.008
                                                        37.400

 151279139.973 6                 112968150.925 6  28787477.883
                                  28787482.016          41.300
        40.200
 123503825.900 8                  92226866.857 8  23501998.328
                                  23501996.551          48.400
        52.300
 129013164.078 8                  96340971.732 8  24550393.883
                                  24550390.918          49.700
        50.700
 124760183.309 8                  93165053.233 8  23741077.969
                                  23741076.512          48.200
        52.000
 144863574.967 6                 108177316.257 6  27566636.656
                                  27566642.164          41.300
        41.200
 126352742.299 8                  94354282.978 8  24044129.828
                                  24044126.184          49.100
        50.800
 146875110.050 6                 109679431.093 6  27949412.250
                                  27949410.422          40.500
        41.300
 23 11  9 13  6 12.0000000  0 28G05G10G13G15G18G23G24G27G29G32R05R06
                                R07R08R09R15R16R20R21R22R23E03E07E08
                                E13E15E26E33
 124258383.785 7  96824638.840 6                  23645596.594
  23645598.820    23645598.859                          44.100          40.800

 127089793.245 7  99030992.447 6  94904689.856 7  24184385.898
  24184389.258    24184389.613    24184384.992          42.300          41.700
        45.800
 120585982.927 7  93963019.77944                  22946759.477
                  22946761.387                          44.000          28.300

 106872750.390 8  83277461.666 8                  20337213.820
  20337213.008    20337212.539                          48.400          48.100

 107146287.402 8  83490610.559 8  80011834.880 9  20389264.797
  20389263.867    20389263.840    20389265.246          49.100          53.600
        56.300
 112555992.400 7  87705972.082 8  84051548.818 8  21418698.789
  21418698.137    21418698.039    21418699.227          47.000          48.800
        51.900
 111437447.495 7  86834401.426 8  83216285.317 8  21205839.539
  21205842.621    21205843.090    21205840.512          47.700          48.700
        51.800
 129106615.079 6 100602664.239 6  96410872.560 7  24568205.031
  24568208.914    24568207.996    24568205.895          38.700          39.400
        44.600
 128120605.346 6  99834125.912 6                  24380556.016
  24380560.566    24380559.617                          39.000          37.400

 134675087.922 6 104941667.700 5 100569086.123 6  25627823.430
  25627829.102    25627829.098    25627827.023          38.900          35.600
        38.100
 131432921.373 6 102225584.695 6                  24587313.789    24587313.969
  24587316.762    24587316.867                          37.700          40.200

 108378275.922 6                                  20310032.859    20310031.977
                                                        38.600

 109570420.771 8  85221443.974 7                  20468680.477    20468679.871
  20468678.621    20468678.211                          49.400          47.700

 127216388.465 6  98946098.569 5                  23756765.039    23756765.133
  23756765.531    23756766.129                          40.400          31.800

 129561541.982 6 100770005.000 6                  24262714.109    24262712.961
  24262718.035    24262717.168                          39.200          38.400

 125907012.075 7  97927694.684 6                  23561780.992    23561781.363
  23561782.020    23561782.055                          43.400          40.800

 122221397.301 7  95061129.992 7                  22880092.859    22880092.848
  22880093.934    22880094.742                          44.700          42.800

 127564940.306 5  99216916.446 5                  23855290.453    23855289.023
  23855294.598    23855295.629                          31.000          32.000

 106243366.498 8  82633714.503 8                  19854083.047    19854081.539
  19854079.934    19854080.113                          49.900          48.800

 107685515.633 8  83755387.807 8                  20173130.938    20173130.199
  20173126.707    20173127.398                          49.500          50.100

 129677704.691 6                                  24241884.039    24241883.496
                                                        37.500

 151281746.053 6                 112970097.028 6  28787973.922
                                  28787977.922          41.100
        40.200
 123503248.955 8                  92226436.022 8  23501888.633
                                  23501886.773          48.600
        52.200
 129014970.178 8                  96342320.440 8  24550737.563
                                  24550734.547          49.500
        50.500
 124761605.334 8                  93166115.134 8  23741348.594
                                  23741347.070          48.300
        52.100
 144866524.110 6                 108179518.531 6  27567197.547
                                  27567203.547          41.000
        41.100
 126351301.416 8                  94353206.999 8  24043855.742
                                  24043852.023          49.200
        51.000
 146872257.972 6                 109677301.290 6  27948869.523
                                  27948867.820          40.700
        41.100
 23 11  9 13  6 13.0000000  0 28G05G10G13G15G18G23G24G27G29G32R05R06
                                R07R08R09R15R16R20R21R22R23E03E07E08
                                E13E15E26E33
 124260884.389 7  96826587.365 6                  23646072.273
  23646074.719    23646074.645                          43.900          40.800

 127087316.003 7  99029062.134 6  94902839.971 7  24183914.352
  24183917.660    24183918.219    24183913.488          42.500          41.600
        46.000
 120589308.786 7  93965611.35644                  22947392.070
                  22947394.082                          43.800          27.900

 106874415.013 8  83278758.780 8                  20337530.031
  20337529.617    20337529.266                          48.700          48.000

 107145804.352 8  83490234.162 8  80011474.162 9  20389172.938
  20389171.945    20389171.949    20389173.277          49.100          53.700
        56.400
 112554320.931 7  87704669.630 8  84050300.639 8  21418380.211
  21418379.746    21418380.059    21418381.129          47.100          48.400
        51.800
 111435370.349 7  86832782.868 8  83214734.198 8  21205444.398
  21205447.480    21205447.832    21205445.285          47.200          48.400
        51.700
 129105712.825 6 100601961.179 6  96410198.813 7  24568033.734
  24568037.074    24568036.211    24568034.285          39.000          39.300
        44.300
 128123978.220 6  99836754.106 6                  24381197.891
  24381202.211    24381201.590                          38.800          37.300

 134671995.939 6 104939258.339 5 100566777.148 6  25627235.156
  25627240.914    25627240.730    25627238.398          39.200          35.700
        38.000
 131436015.912 6 102227991.550 6                  24587893.047    24587892.371
  24587895.609    24587895.730                          37.000          39.800

 108379882.734 6                                  20310334.656    20310332.797
                                                        38.600

 109569369.009 8  85220625.942 7                  20468483.969    20468483.238
  20468482.070    20468481.648                          49.800          47.300

 127213680.901 6  98943992.714 5                  23756260.891    23756259.684
  23756259.777    23756260.590                          40.400          32.200

 129557943.607 6 100767206.280 6                  24262040.500    24262039.375
  24262043.719    24262043.324                          39.900          37.700

 125907488.791 7  97928065.449 6                  23561870.289    23561869.930
  23561871.785    23561871.480                          42.900          41.400

 122218980.559 7  95059250.302 7                  22879640.789    22879640.137
  22879641.480    22879642.352                          44.600          42.500

 127569500.168 5  99220463.010 5                  23856142.570    23856141.746
  23856147.379    23856148.297                          30.100          31.400

 106245742.551 8  82635562.554 8                  19854526.875    19854525.676
  19854523.781    19854524.059                          49.900          48.800

 107683768.718 8  83754029.085 8                  20172803.422    20172802.848
  20172799.523    20172800.141                          49.500          50.100

 129673485.235 6                                  24241095.234    24241094.656
                                                        37.500

 151284352.030 6                 112972043.036 6  28788469.547
                                  28788473.645          41.300
        39.400
 123502672.303 8                  92226005.402 8  23501778.695
                                  23501777.059          48.300
        52.600
 129016776.407 8                  96343669.252 8  24551081.219
                                  24551078.285          49.400
        50.400
 124763027.725 8                  93167177.297 8  23741619.273
                                  23741617.754          48.000
        52.000
 144869473.361 6                 108181720.879 6  27567759.008
                                  27567764.727          41.200
        41.100
 126349860.860 8                  94352131.253 8  24043581.617
                                  24043577.840          49.100
        50.900
 146869405.915 6                 109675171.515 6  27948326.742
                                  27948325.230          41.100
        41.000
 23 11  9 13  6 14.0000000  0 28G05G10G13G15G18G23G24G27G29G32R05R06
                                R07R08R09R15R16R20R21R22R23E03E07E08
                                E13E15E26E33
 124263385.143 7  96828535.978 6                  23646548.469
  23646550.559    23646550.477                          44.100          41.000

 127084838.751 7  99027131.810 6  94900990.072 7  24183443.273
  24183446.691    24183446.730    24183442.023          42.500          41.700
        46.100
 120592634.806 7  93968203.05144                  22948025.148
                  22948027.082                          43.300          28.500

 106876080.062 8  83280056.221 8                  20337847.047
  20337846.586    20337846.203                          48.400          48.100

 107145321.936 8  83489858.247 8  80011113.913 9  20389081.617
  20389080.078    20389080.063    20389081.520          49.200          53.600
        56.600
 112552649.633 7  87703367.325 8  84049052.585 8  21418062.648
  21418061.859    21418062.090    21418063.086          46.800          48.400
        51.700
 111433293.799 7  86831164.777 8  83213183.531 8  21205048.992
  21205052.527    21205052.582    21205050.090          47.000          48.300
        51.500
 129104811.208 6 100601258.608 6  96409525.517 7  24567862.625
  24567865.410    24567864.641    24567862.672          38.700          39.400
        44.500
 128127351.105 6  99839382.323 6                  24381840.711
  24381843.996    24381843.402                          39.000          37.300

 134668904.043 6 104936849.074 5 100564468.275 6  25626646.578
  25626652.160    25626652.496    25626650.254          38.600          35.700
        38.400
 131439110.336 5 102230398.319 6                  24588471.367    24588470.883
  24588474.520    24588474.660                          35.400          39.500

 108381489.769 6                                  20310635.781    20310634.172
                                                        38.600

 109568317.611 8  85219808.177 7                  20468287.609    20468286.926
  20468286.000    20468285.273                          48.500          47.300

 127210973.572 6  98941887.014 5                  23755754.617    23755754.344
  23755754.367    23755754.969                          40.600          31.900

 129554345.130 6 100764407.478 6                  24261366.930    24261365.633
  24261369.641    24261369.508                          40.500          37.100

 125907966.281 7  97928436.792 6                  23561959.477    23561959.285
  23561960.656    23561960.965                          42.600          40.900

 122216564.326 7  95057371.017 7                  22879187.672    22879187.813
  22879188.598    22879189.938                          44.700          42.300

 127574060.06015  99224009.598 5                  23856996.703    23856994.113
  23857000.574    23857001.090                          30.400          31.600

 106248119.420 8  82637411.217 8                  19854970.930    19854969.711
  19854968.070    19854968.336                          49.900          48.500

 107682022.602 8  83752671.001 8                  20172476.984    20172475.828
  20172472.102    20172472.922                          48.900          49.800

 129669266.004 6                                  24240306.289    24240305.789
                                                        37.700

 151286957.960 6                 112973989.013 6  28788965.516
                                  28788969.543          41.100
        39.000
 123502095.969 7                  92225575.019 8  23501669.195
                                  23501667.363          47.700
        52.400
 129018582.827 8                  96345018.186 8  24551425.000
                                  24551422.012          49.700
        50.500
 124764450.514 8                  93168239.769 8  23741890.055
                                  23741888.484          48.300
        51.600
 144872422.748 6                 108183923.322 6  27568320.352
                                  27568326.105          41.000
        41.100
 126348420.654 8                  94351055.770 8  24043307.516
                                  24043303.758          48.900
        51.000
 146866553.940 6                 109673041.768 6  27947784.102
                                  27947782.586          41.500
        41.000
 23 11  9 13  6 15.0000000  0 28G05G10G13G15G18G23G24G27G29G32R05R06
                                R07R08R09R15R16R20R21R22R23E03E07E08
                                E13E15E26E33
 124265886.022 7  96830484.709 6                  23647024.258
  23647026.648    23647026.566                          43.900          41.100

 127082361.497 7  99025201.483 7  94899140.186 7  24182971.664
  24182975.141    24182975.313    24182970.738          42.700          42.000
        46.300
 120595960.990 7  93970794.88244                  22948657.961
                  22948660.082                          43.700          26.500

 106877745.531 8  83281353.988 8                  20338164.016
  20338163.258    20338163.125                          48.300          48.200

 107144840.157 8  83489482.839 8  80010754.145 9  20388989.656
  20388988.477    20388988.367    20388989.809          49.100          53.700
        56.900
 112550978.508 7  87702065.153 8  84047804.664 8  21417744.531
  21417743.547    21417744.113    21417745.125          46.900          48.500
        51.800
 111431217.846 7  86829547.148 8  83211633.294 8  21204654.352
  21204657.441    21204657.520    21204655.078          47.000          48.500
        51.900
 129103910.156 6 100600556.524 6  96408852.677 7  24567690.500
  24567693.793    24567693.188    24567691.242          38.700          39.600
        44.600
 128130723.985 6  99842010.535 6                  24382481.813
  24382485.730    24382485.215                          39.400          36.900

 134665812.327 6 104934439.950 6 100562159.540 6  25626058.563
  25626064.691    25626064.336    25626061.844          39.300          36.200
        38.700
 131442204.647 5 102232804.971 6                  24589049.109    24589049.398
  24589053.656    24589053.441                          35.500          39.700

 108383097.041 6                                  20310936.203    20310935.371
                                                        38.900

 109567266.581 8  85218990.710 7                  20468091.406    20468090.703
  20468089.297    20468088.945                          48.500          47.300

 127208266.474 6  98939781.499 5                  23755250.109    23755248.809
  23755248.645    23755249.387                          40.400          32.400

 129550746.536 6 100761608.603 6                  24260692.672    24260691.902
  24260695.957    24260695.777                          40.300          37.200

 125908444.547 7  97928808.799 6                  23562048.820    23562048.648
  23562049.977    23562050.402                          42.600          40.900

 122214148.639 7  95055492.144 7                  22878735.969    22878735.820
  22878737.344    22878737.746                          44.900          42.600

 127578620.106 5  99227556.331 5                  23857848.813    23857846.863
  23857852.664    23857853.797                          30.100          31.500

 106250497.132 8  82639260.550 8                  19855415.148    19855413.992
  19855412.227    19855412.492                          49.600          48.500

 107680277.323 8  83751313.558 8                  20172149.656    20172148.871
  20172145.176    20172146.063                          48.800          49.600

 129665046.986 6                                  24239517.375    24239517.453
                                                        37.200

 151289563.833 6                 112975934.958 6  28789461.297
                                  28789465.629          41.400
        39.500
 123501519.969 8                  92225144.890 8  23501559.508
                                  23501557.805          48.100
        52.500
 129020389.409 8                  96346367.261 8  24551768.836
                                  24551765.820          49.300
        50.200
 124765873.732 8                  93169302.567 8  23742160.625
                                  23742159.426          48.300
        51.700
 144875372.263 6                 108186125.889 6  27568881.641
                                  27568887.398          41.000
        41.200
 126346980.797 8                  94349980.564 8  24043033.438
                                  24043029.777          48.700
        50.700
 146863701.997 6                 109670912.092 6  27947241.242
                                  27947239.590          41.600
        41.200
 23 11  9 13  6 16.0000000  0 28G05G10G13G15G18G23G24G27G29G32R05R06
                                R07R08R09R15R16R20R21R22R23E03E07E08
                                E13E15E26E33
 124268386.991 7  96832433.526 6                  23647499.867
  23647502.461    23647502.707                          44.100          41.100

 127079884.229 7  99023271.127 7  94897290.254 7  24182499.984
  24182503.211    24182503.883    24182499.402          42.900          42.000
        45.800
 120599287.290 7  93973386.78744                  22949291.313
                  22949293.012                          43.900          28.100

 106879411.372 8  83282652.038 8                  20338480.719
  20338480.348    20338480.016                          48.400          48.200

 107144358.966 8  83489107.877 8  80010394.810 9  20388897.781
  20388896.801    20388896.871    20388898.238          49.200          53.500
        56.900
 112549307.497 7  87700763.056 8  84046556.833 8  21417426.297
  21417425.734    21417425.984    21417427.102          47.100          48.500
        51.700
 111429142.432 7  86827929.950 8  83210083.476 8  21204259.500
  21204262.461    21204262.766    21204260.195          46.800          48.500
        52.100
 129103009.699 6 100599854.831 6  96408180.249 7  24567519.250
  24567522.391    24567521.879    24567519.816          38.800          39.300
        44.400
 128134096.844 6  99844638.745 6                  24383123.688
  24383127.434    24383127.027                          39.200          37.100

 134662720.712 6 104932030.887 6 100559850.846 6  25625470.359
  25625476.340    25625476.102    25625473.563          39.200          36.000
        38.700
 131445298.757 6 102235211.501 6                  24589628.836    24589628.648
  24589631.320    24589632.324                          36.000          39.700

 108384704.497 6                                  20311238.336    20311236.480
                                                        39.000

 109566215.873 8  85218173.495 7                  20467894.906    20467894.250
  20467892.852    20467892.617                          49.200          47.400

 127205559.532 6  98937676.085 5                  23754744.344    23754743.375
  23754743.219    23754743.934                          40.200          32.800

 129547147.833 6 100758809.625 6                  24260019.820    24260017.934
  24260021.727    24260021.648                          40.400          36.500

 125908923.587 7  97929181.364 6                  23562139.234    23562138.355
  23562139.211    23562140.074                          43.000          40.200

 122211733.410 7  95053613.650 7                  22878284.055    22878283.566
  22878285.418    22878285.602                          44.600          43.200

 127583180.197 4  99231103.068 5                  23858701.633    23858699.594
  23858707.254    23858706.555                          29.700          32.000

 106252875.619 8  82641110.485 8                  19855859.313    19855858.551
  19855856.688    19855857.020                          50.200          48.600

 107678532.811 8  83749956.724 8                  20171822.875    20171822.008
  20171819.078    20171819.230                          49.300          49.700

 129660828.115 6                                  24238729.133    24238728.406
                                                        37.500

 151292169.608 6                 112977880.827 6  28789957.234
                                  28789961.398          40.900
        39.700
 123500944.230 8                  92224714.962 8  23501450.031
                                  23501448.258          48.300
        52.100
 129022196.134 8                  96347716.428 8  24552112.672
                                  24552109.648          49.400
        50.300
 124767297.319 8                  93170365.625 8  23742431.586
                                  23742430.309          48.200
        51.900
 144878321.854 6                 108188328.501 6  27569443.094
                                  27569448.816          41.400
        41.500
 126345541.263 8                  94348905.576 8  24042759.609
                                  24042755.898          48.700
        49.900
 146860850.106 6                 109668782.411 6  27946698.719
                                  27946696.926          41.600
        41.200
 23 11  9 13  6 17.0000000  0 28G05G10G13G15G18G23G24G27G29G32R05R06
                                R07R08R09R15R16R20R21R22R23E03E07E08
                                E13E15E26E33
 124270888.103 7  96834382.433 6                  23647975.750
  23647978.000    23647978.527                          43.900          41.100

 127077406.947 7  99021340.776 7  94895440.330 7  24182028.727
  24182031.711    24182032.613    24182027.918          42.500          42.000
        45.600
 120602613.760 7  93975978.84544                  22949924.219
                  22949925.980                          44.100          28.000

 106881077.637 8  83283950.413 8                  20338797.797
  20338797.387    20338797.176                          48.300          48.200

 107143878.406 8  83488733.413 8  80010035.956 9  20388806.578
  20388805.559    20388805.434    20388806.781          49.400          53.600
        57.300
 112547636.648 7  87699461.104 8  84045309.124 8  21417108.375
  21417107.816    21417107.922    21417109.078          47.300          48.800
        51.800
 111427067.619 7  86826313.211 8  83208534.100 8  21203864.469
  21203867.402    21203867.828    21203865.289          47.400          48.900
        52.100
 129102109.855 6 100599153.668 6  96407508.266 7  24567348.078
  24567351.066    24567350.707    24567348.613          39.300          39.600
        44.300
 128137469.684 6  99847266.923 6                  24383765.328
  24383769.508    24383768.828                          39.500          37.300

 134659629.198 6 104929621.948 5 100557542.262 6  25624881.914
  25624887.309    25624887.660    25624885.223          39.200          35.900
        38.600
 131448392.789 5 102237617.949 6                  24590208.672    24590207.031
  24590210.754    24590211.117                          35.900          39.200

 108386312.198 6                                  20311540.039    20311537.871
                                                        38.800

 109565165.542 8  85217356.569 7                  20467698.633    20467698.094
  20467696.523    20467696.410                          49.600          47.100

 127202852.846 6  98935570.844 5                  23754237.969    23754238.324
  23754238.496    23754238.477                          40.300          32.700

 129543548.992 6 100756010.574 6                  24259344.820    24259343.840
  24259348.023    24259347.719                          40.000          36.100

 125909403.407 7  97929554.585 6                  23562228.727    23562227.902
  23562228.938    23562229.770                          43.000          40.700

 122209318.738 7  95051735.564 7                  22877832.023    22877831.254
  22877832.668    22877833.586                          44.500          43.000

 127587740.345 5  99234649.846 5                  23859554.375    23859552.730
  23859559.352    23859559.332                          30.600          32.000

 106255254.895 8  82642961.036 8                  19856304.344    19856303.160
  19856301.211    19856301.719                          50.500          48.800

 107676789.111 8  83748600.516 8                  20171496.227    20171495.605
  20171491.598    20171492.586                          49.400          49.900

 129656609.437 6                                  24237940.039    24237939.914
                                                        37.100

 151294775.317 6                 112979826.623 6  28790453.023
                                  28790457.148          40.900
        39.600
 123500368.841 8                  92224285.275 8  23501340.625
                                  23501338.742          48.600
        51.800
 129024003.015 8                  96349065.730 8  24552456.500
                                  24552453.535          49.400
        50.200
 124768721.302 8                  93171428.986 8  23742702.570
                                  23742701.215          48.200
        52.000
 144881271.599 6                 108190531.207 6  27570004.297
                                  27570009.988          40.900
        41.400
 126344102.076 8                  94347830.859 8  24042485.633
                                  24042481.992          48.700
        49.900
 146857998.272 6                 109666652.792 6  27946156.242
                                  27946154.129          41.400
        40.700
 23 11  9 13  6 18.0000000  0 28G05G10G13G15G18G23G24G27G29G32R05R06
                                R07R08R09R15R16R20R21R22R23E03E07E08
                                E13E15E26E33
 124273389.348 7  96836331.459 6                  23648452.258
  23648454.668    23648454.590                          43.800          41.200

 127074929.624 7  99019410.402 7  94893590.403 7  24181557.406
  24181560.297    24181561.246    24181556.512          42.600          42.200
        45.900
 120605940.373 7  93978571.01244                  22950556.953
                  22950559.113                          43.900          27.500

 106882744.292 8  83285249.120 8                  20339115.000
  20339114.855    20339114.328                          48.500          48.200

 107143398.491 8  83488359.449 8  80009677.561 9  20388714.961
  20388714.164    20388714.234    20388715.434          49.400          53.500
        56.200
 112545965.964 7  87698159.261 8  84044061.531 8  21416790.633
  21416789.820    21416790.129    21416791.285          47.500          48.800
        51.600
 111424993.397 7  86824696.930 8  83206985.168 8  21203469.539
  21203472.977    21203473.070    21203470.578          47.400          49.100
        51.700
 129101210.595 6 100598452.930 6  96406836.745 7  24567176.797
  24567179.703    24567179.668    24567177.480          39.200          39.600
        44.100
 128140842.505 6  99849895.114 6                  24384407.898
  24384411.469    24384410.910                          39.500          37.400

 134656537.846 6 104927213.082 5 100555233.784 6  25624293.234
  25624298.887    25624299.285    25624297.035          39.000          35.500
        38.600
 131451486.688 5 102240024.283 6                  24590787.383    24590785.813
  24590789.172    24590789.684                          34.800          38.300

 108387920.109 6                                  20311840.453    20311839.602
                                                        39.000

 109564115.579 8  85216539.935 7                  20467502.758    20467502.035
  20467500.777    20467500.402                          50.100          47.000

 127200146.355 6  98933465.791 5                  23753733.164    23753732.945
  23753734.113    23753733.004                          40.500          33.300

 129539950.040 6 100753211.385 6                  24258670.500    24258670.055
  24258673.020    24258673.773                          39.700          36.600

 125909884.041 7  97929928.391 6                  23562317.813    23562317.730
  23562319.309    23562319.996                          42.700          40.800

 122206904.537 7  95049857.883 7                  22877379.586    22877379.461
  22877380.680    22877381.660                          44.800          43.000

 127592300.571 5  99238196.628 5                  23860407.648    23860405.758
  23860413.215    23860412.219                          30.500          32.600

 106257634.917 8  82644812.157 8                  19856748.492    19856747.961
  19856746.086    19856746.363                          50.600          49.100

 107675046.232 8  83747244.941 8                  20171169.805    20171168.941
  20171165.582    20171166.063                          50.100          49.900

 129652390.999 6                                  24237152.008    24237151.219
                                                        37.000

 151297380.954 6                 112981772.413 6  28790948.992
                                  28790953.078          40.500
        39.600
 123499793.748 8                  92223855.826 8  23501230.953
                                  23501229.387          48.500
        52.000
 129025810.068 8                  96350415.151 8  24552800.492
                                  24552797.258          49.100
        50.100
 124770145.686 8                  93172492.652 8  23742973.734
                                  23742972.375          48.500
        52.200
 144884221.480 6                 108192734.029 6  27570565.555
                                  27570571.430          41.200
        41.800
 126342663.236 8                  94346756.396 8  24042211.859
                                  24042208.184          48.700
        50.500
 146855146.488 6                 109664523.207 6  27945613.375
                                  27945611.496          41.200
        41.000
 23 11  9 13  6 19.0000000  0 28G05G10G13G15G18G23G24G27G29G32R05R06
                                R07R08R09R15R16R20R21R22R23E03E07E08
                                E13E15E26E33
 124275890.776 7  96838280.620 6                  23648928.453
  23648930.840    23648930.707                          43.600          41.200

 127072452.362 7  99017480.074 7  94891740.495 7  24181086.328
  24181089.211    24181089.891    24181085.133          43.000          42.400
        45.600
 120609267.173 7  93981163.31144                  22951190.266
                  22951192.141                          44.200          27.300

 106884411.397 8  83286548.170 8                  20339432.805
  20339432.012    20339431.648                          48.700          48.300

 107142919.218 8  83487985.986 8  80009319.665 9  20388623.484
  20388622.961    20388622.879    20388624.293          49.500          53.500
        56.400
 112544295.485 7  87696857.590 8  84042814.095 8  21416472.453
  21416471.855    21416472.258    21416473.375          47.600          48.800
        51.600
 111422919.790 7  86823081.135 8  83205436.698 8  21203074.914
  21203078.027    21203078.605    21203075.977          47.400          49.000
        51.700
 129100311.975 6 100597752.707 6  96406165.694 7  24567005.867
  24567008.898    24567008.605    24567006.469          39.000          39.700
        44.000
 128144215.413 6  99852523.283 6                  24385049.141
  24385053.336    24385052.832                          39.900          37.100

 134653446.663 6 104924804.375 6 100552925.425 6  25623704.758
  25623710.758    25623710.906    25623708.984          39.300          36.000
        38.200
 131454580.377 5 102242430.487 6                  24591365.945    24591364.484
  24591368.328    24591368.332                          34.500          38.400

 108389528.315 6                                  20312142.734    20312140.695
                                                        38.800

 109563066.007 8  85215723.601 7                  20467306.430    20467305.914
  20467304.621    20467304.340                          50.500          47.000

 127197440.088 6  98931360.948 5                  23753227.656    23753227.715
  23753227.184    23753227.648                          40.300          33.100

 129536351.005 6 100750412.167 6                  24257996.633    24257995.707
  24257999.109    24257999.992                          40.300          37.100

 125910365.474 7  97930302.842 6                  23562408.758    23562408.070
  23562409.047    23562410.090                          42.900          40.600

 122204490.958 7  95047980.635 7                  22876927.242    22876928.035
  22876929.582    22876929.977                          44.500          42.600

 127596860.920 5  99241743.570 5                  23861259.438    23861258.699
  23861265.203    23861265.098                          30.500          32.600

 106260015.756 8  82646663.920 8                  19857194.141    19857192.758
  19857191.035    19857191.391                          50.800          49.300

 107673304.190 8  83745890.018 8                  20170843.508    20170842.379
  20170838.945    20170839.758                          50.300          50.000

 129648172.759 6                                  24236363.539    24236363.102
                                                        36.400

 151299986.628 6                 112983718.155 6  28791444.547
                                  28791448.785          40.500
        39.100
 123499219.011 8                  92223426.639 8  23501121.695
                                  23501119.973          48.600
        52.000
 129027617.321 8                  96351764.723 8  24553144.320
                                  24553141.258          49.400
        50.000
 124771570.517 8                  93173556.651 8  23743244.992
                                  23743243.469          48.500
        52.200
 144887171.500 6                 108194936.970 7  27571127.141
                                  27571132.750          40.900
        42.100
 126341224.781 8                  94345682.236 8  24041938.125
                                  24041934.504          48.700
        50.600
 146852294.802 6                 109662393.699 6  27945070.836
                                  27945068.750          41.600
        40.800
 23 11  9 13  6 20.0000000  0 28G05G10G13G15G18G23G24G27G29G32R05R06
                                R07R08R09R15R16R20R21R22R23E03E07E08
                                E13E15E26E33
 124278392.269 7  96840229.822 6                  23649404.422
  23649407.008    23649406.805                          43.700          41.100

 127069975.038 7  99015549.672 7  94889890.524 7  24180614.469
  24180617.469    24180618.324    24180613.676          42.900          42.300
        45.700
 120612594.046 7  93983755.68044                  22951823.234
                  22951825.145                          44.500          27.500

 106886078.838 8  83287847.459 8                  20339749.883
  20339749.199    20339748.941                          48.600          48.400

 107142440.499 8  83487612.957 8  80008962.189 9  20388532.703
  20388531.797    20388531.754    20388533.156          49.900          53.400
        56.700
 112542625.083 7  87695555.978 8  84041566.715 8  21416155.109
  21416154.414    21416154.391    21416155.516          47.600          48.700
        51.900
 111420846.711 7  86821465.742 8  83203888.620 8  21202680.641
  21202683.539    21202683.965    21202681.469          47.600          49.200
        51.800
 129099413.862 6 100597052.877 6  96405495.036 7  24566835.344
  24566838.145    24566837.797    24566835.582          39.200          39.200
        44.100
 128147588.189 6  99855151.454 6                  24385691.203
  24385695.145    24385694.668                          39.900          37.600

 134650355.553 6 104922395.706 5 100550617.138 6  25623117.289
  25623122.313    25623122.781    25623120.883          39.900          35.600
        38.600
 131457673.919 5 102244836.556 6                  24591944.508    24591943.609
  24591947.898    24591947.156                          33.300          37.700

 108391136.662 6                                  20312442.828    20312442.078
                                                        38.300

 109562016.717 8  85214907.476 7                  20467110.508    20467109.957
  20467108.824    20467108.293                          51.000          47.200

 127194733.947 6  98929256.164 5                  23752722.578    23752722.281
  23752723.512    23752722.230                          40.600          33.200

 129532751.794 6 100747612.786 6                  24257322.961    24257321.723
  24257326.105    24257325.855                          40.400          36.900

 125910847.587 7  97930677.815 6                  23562499.008    23562498.055
  23562500.117    23562500.164                          42.700          40.800

 122202077.804 7  95046103.749 7                  22876476.328    22876476.066
  22876477.586    22876478.113                          44.600          42.900

 127601421.27515  99245290.480 5                  23862112.516    23862111.305
  23862118.461    23862118.109                          31.100          32.900

 106262397.346 8  82648516.255 8                  19857639.016    19857638.102
  19857636.445    19857636.449                          51.000          49.000

 107671562.887 8  83744535.660 8                  20170517.078    20170516.316
  20170512.930    20170513.574                          50.200          49.900

 129643954.688 6                                  24235574.633    24235574.410
                                                        36.000

 151302592.091 6                 112985663.791 6  28791940.109
                                  28791944.586          39.700
        38.100
 123498644.516 8                  92222997.632 8  23501012.328
                                  23501010.633          48.600
        51.900
 129029424.676 8                  96353114.355 8  24553488.242
                                  24553485.199          49.600
        50.100
 124772995.682 8                  93174620.891 8  23743516.242
                                  23743514.543          48.500
        52.300
 144890121.580 6                 108197139.967 7  27571688.703
                                  27571694.090          40.900
        42.100
 126339786.598 8                  94344608.259 8  24041664.375
                                  24041660.816          48.600
        51.000
 146849443.103 6                 109660264.171 6  27944527.891
                                  27944526.145          41.800
        40.900
 23 11  9 13  6 21.0000000  0 28G05G10G13G15G18G23G24G27G29G32R05R06
                                R07R08R09R15R16R20R21R22R23E03E07E08
                                E13E15E26E33
 124280893.885 7  96842179.126 6                  23649880.313
  23649882.918    23649882.805                          43.200          41.400

 127067497.647 7  99013619.259 7  94888040.547 7  24180143.445
  24180146.137    24180147.012    24180142.227          43.600          42.200
        45.800
 120615921.090 7  93986348.16944                  22952455.977
                  22952458.324                          44.300          26.500

 106887746.706 8  83289147.084 8                  20340066.773
  20340066.668    20340066.445                          49.200          48.300

 107141962.422 8  83487240.433 8  80008605.175 9  20388441.891
  20388440.625    20388440.852    20388442.219          49.700          53.200
        56.500
 112540954.853 7  87694254.495 8  84040319.467 8  21415837.203
  21415836.406    21415836.438    21415837.637          47.500          48.700
        51.900
 111418774.218 7  86819850.821 8  83202340.987 8  21202285.695
  21202289.262    21202289.520    21202287.160          47.800          49.600
        51.800
 129098516.414 6 100596353.542 6  96404824.835 7  24566664.055
  24566667.309    24566667.051    24566664.824          39.900          39.000
        44.000
 128150960.990 6  99857779.580 6                  24386333.008
  24386337.566    24386336.582                          40.100          37.500

 134647264.558 6 104919987.164 5 100548308.918 6  25622529.031
  25622534.293    25622534.688    25622532.457          39.300          35.700
        38.300
 131460767.318 5 102247242.520 6                  24592524.039    24592522.359
  24592526.273    24592525.848                          33.400          37.300

 108392745.265 6                                  20312745.438    20312743.523
                                                        38.300

 109560967.751 8  85214091.628 7                  20466914.680    20466914.070
  20466912.582    20466912.359                          50.800          47.000

 127192027.996 6  98927151.534 5                  23752218.016    23752216.883
  23752219.039    23752216.582                          40.600          33.100

 129529152.475 6 100744813.319 6                  24256649.234    24256647.914
  24256651.520    24256651.770                          40.700          37.100

 125911330.527 7  97931053.448 6                  23562589.117    23562588.629
  23562590.375    23562590.500                          42.500          41.000

 122199665.178 7  95044227.258 7                  22876023.984    22876024.484
  22876025.836    22876026.594                          44.700          42.900

 127605981.684 5  99248837.460 5                  23862964.594    23862963.891
  23862970.793    23862971.105                          31.200          33.300

 106264779.752 8  82650369.235 8                  19858084.352    19858083.203
  19858080.938    19858081.641                          50.900          49.000

 107669822.383 8  83743181.943 8                  20170191.125    20170190.359
  20170186.980    20170187.492                          50.400          49.700

 129639736.870 5                                  24234786.273    24234785.652
                                                        35.900

 151305197.539 6                 112987609.415 6  28792436.328
                                  28792440.379          39.900
        37.900
 123498070.341 8                  92222568.866 8  23500903.195
                                  23500901.371          49.000
        52.000
 129031232.201 8                  96354464.134 8  24553832.367
                                  24553829.180          49.500
        50.100
 124774421.248 8                  93175685.435 8  23743787.359
                                  23743785.883          48.200
        51.900
 144893071.803 6                 108199343.036 7  27572250.109
                                  27572255.492          41.000
        42.100
 126338348.770 8                  94343534.564 8  24041390.828
                                  24041387.121          48.400
        50.800
 146846591.422 6                 109658134.685 6  27943985.461
                                  27943983.305          41.500
        40.900
 23 11  9 13  6 22.0000000  0 28G05G10G13G15G18G23G24G27G29G32R05R06
                                R07R08R09R15R16R20R21R22R23E03E07E08
                                E13E15E26E33
 124283395.655 7  96844128.568 6                  23650356.430
  23650359.316    23650358.898                          43.700          41.600

 127065020.291 7  99011688.855 7  94886190.574 7  24179671.461
  24179674.945    24179675.539    24179670.680          43.600          42.000
        46.000
 120619248.298 7  93988940.80244                  22953089.531
                  22953091.332                          44.200          27.400

 106889414.977 8  83290447.048 8                  20340384.523
  20340384.008    20340383.828                          49.100          48.100

 107141484.972 8  83486868.399 8  80008248.639 9  20388351.070
  20388349.961    20388350.035    20388351.324          49.800          53.300
        56.100
 112539284.796 7  87692953.149 8  84039072.342 8  21415519.289
  21415518.566    21415518.730    21415519.863          47.400          48.500
        52.000
 111416702.328 7  86818236.363 8  83200793.789 8  21201892.172
  21201895.352    21201895.219    21201892.840          47.700          49.500
        52.200
 129097619.524 6 100595654.668 6  96404155.081 7  24566494.141
  24566496.609    24566496.492    24566493.969          40.200          39.600
        44.400
 128154333.786 6  99860407.743 6                  24386975.047
  24386979.020    24386978.438                          40.300          37.600

 134644173.729 6 104917578.688 5 100546000.831 6  25621940.680
  25621946.098    25621946.348    25621944.402          39.400          35.200
        38.400
 131463860.647 5 102249648.396 6                  24593101.594    24593100.688
  24593105.012    24593104.605                          33.500          37.100

 108394354.116 6                                  20313046.375    20313044.805
                                                        38.400

 109559919.152 8  85213276.044 7                  20466718.750    20466718.098
  20466716.559    20466716.480                          50.800          47.300

 127189322.292 6  98925047.074 5                  23751711.836    23751711.660
  23751713.234    23751711.191                          40.600          32.500

 129525553.024 6 100742013.783 6                  24255974.547    24255973.898
  24255977.297    24255977.820                          40.100          37.200

 125911814.281 7  97931429.697 6                  23562679.625    23562678.805
  23562680.207    23562680.961                          42.700          41.300

 122197253.068 7  95042351.170 7                  22875572.430    22875572.715
  22875574.637    22875575.086                          44.900          43.100

 127610542.156 5  99252384.492 5                  23863818.438    23863816.887
  23863823.668    23863824.004                          30.900          33.700

 106267162.971 8  82652222.856 8                  19858529.641    19858528.473
  19858526.180    19858527.012                          50.900          49.400

 107668082.708 8  83741828.865 8                  20169864.906    20169864.328
  20169861.492    20169861.641                          50.500          49.500

 129635519.195 5                                  24233997.133    24233997.574
                                                        35.400

 151307802.915 6                 112989554.987 6  28792932.227
                                  28792936.223          39.900
        37.600
 123497496.500 8                  92222140.348 8  23500793.852
                                  23500792.234          48.800
        52.100
 129033039.902 8                  96355814.041 8  24554176.336
                                  24554173.156          49.400
        50.600
 124775847.231 8                  93176750.291 8  23744058.641
                                  23744057.258          48.100
        51.500
 144896022.191 6                 108201546.206 7  27572811.578
                                  27572817.105          41.200
        42.200
 126336911.317 8                  94342461.130 8  24041117.289
                                  24041113.660          48.500
        51.000
 146843739.867 6                 109656005.248 6  27943442.875
                                  27943440.742          41.700
        41.200
 23 11  9 13  6 23.0000000  0 28G05G10G13G15G18G23G24G27G29G32R05R06
                                R07R08R09R15R16R20R21R22R23E03E07E08
                                E13E15E26E33
 124285897.615 7  96846078.120 6                  23650832.211
  23650835.195    23650835.105                          43.900          41.800

 127062542.929 7  99009758.445 6  94884340.592 7  24179200.297
  24179203.438    24179204.047    24179199.371          43.100          41.800
        46.300
 120622575.663 7  93991533.54144                  22953723.094
                  22953724.480                          44.100          28.100

 106891083.668 8  83291747.320 7                  20340702.172
  20340701.813    20340701.398                          48.700          47.900

 107141008.158 8  83486496.859 8  80007892.578 9  20388260.172
  20388259.148    20388259.273    20388260.605          49.300          53.300
        56.200
 112537614.898 7  87691651.940 8  84037825.339 8  21415201.227
  21415200.766    21415200.984    21415202.125          47.000          48.200
        51.700
 111414631.036 7  86816622.372 8  83199247.042 8  21201497.805
  21201501.246    21201501.141    21201498.680          47.600          49.300
        52.000
 129096723.257 6 100594956.296 6  96403485.784 7  24566322.789
  24566325.844    24566325.977    24566323.465          40.100          39.500
        44.500
 128157706.575 6  99863035.870 6                  24387616.297
  24387621.004    24387620.195                          40.300          37.600

 134641083.046 6 104915170.353 5 100543692.843 6  25621351.953
  25621357.891    25621358.281    25621356.219          39.200          35.200
        38.400
 131466953.772 5 102252054.186 6                  24593679.656    24593679.879
  24593683.867    24593683.219                          34.100          37.100

 108395963.185 6                                  20313347.789    20313346.320
                                                        38.300

 109558870.934 8  85212460.762 7                  20466522.516    20466522.320
  20466521.051    20466520.633                          50.100          47.600

 127186616.795 6  98922942.831 5                  23751207.320    23751206.824
  23751206.629    23751206.039                          40.200          32.300

 129521953.488 6 100739214.116 6                  24255300.727    24255299.809
  24255304.121    24255303.641                          39.700          37.000

 125912298.829 7  97931806.532 6                  23562769.742    23562769.750
  23562771.410    23562771.805                          43.100          41.700

 122194841.495 7  95040475.526 7                  22875120.883    22875121.066
  22875123.324    22875123.504                          44.700          43.200

 127615102.716 5  99255931.633 5                  23864671.563    23864670.121
  23864677.305    23864676.762                          31.400          33.400

 106269546.959 8  82654077.070 8                  19858975.289    19858973.957
  19858972.047    19858972.516                          50.500          49.600

 107666343.847 8  83740476.415 8                  20169539.773    20169538.582
  20169535.176    20169535.855                          50.200          49.800

 129631301.778 5                                  24233208.500    24233208.758
                                                        35.400

 151310408.246 6                 112991500.495 6  28793427.867
                                  28793431.836          39.900
        38.000
 123496922.981 8                  92221712.067 8  23500684.906
                                  23500683.059          48.700
        52.300
 129034847.768 8                  96357164.068 8  24554520.242
                                  24554517.203          49.000
        50.600
 124777273.625 8                  93177815.453 8  23744330.180
                                  23744328.727          48.000
        51.900
 144898972.663 6                 108203749.492 6  27573372.844
                                  27573378.414          40.700
        41.700
 126335474.194 8                  94341387.957 8  24040843.750
                                  24040840.148          48.400
        51.000
 146840888.329 6                 109653875.851 6  27942900.289
                                  27942898.059          41.500
        41.200
 23 11  9 13  6 24.0000000  0 28G05G10G13G15G18G23G24G27G29G32R05R06
                                R07R08R09R15R16R20R21R22R23E03E07E08
                                E13E15E26E33
 124288399.665 7  96848027.779 7                  23651308.758
  23651311.148    23651311.410                          43.600          42.200

 127060065.562 7  99007828.029 6  94882490.607 7  24178728.688
  24178732.172    24178732.648    24178728.070          43.200          41.800
        46.400
 120625903.157 7  93994126.39844                  22954355.508
                  22954357.793                          43.400          27.900

 106892752.734 8  83293047.900 7                  20341019.938
  20341019.328    20341018.852                          48.900          47.800

 107140531.957 8  83486125.790 8  80007536.972 9  20388169.711
  20388168.418    20388168.770    20388169.918          49.300          53.200
        56.200
 112535945.157 7  87690350.837 8  84036578.451 8  21414884.281
  21414883.098    21414883.199    21414884.375          46.500          48.000
        51.200
 111412560.328 7  86815008.828 8  83197700.736 8  21201103.820
  21201106.930    21201107.012    21201104.559          47.200          49.100
        51.700
 129095827.571 6 100594258.339 6  96402816.924 7  24566152.844
  24566155.508    24566155.484    24566152.957          40.000          39.700
        44.600
 128161079.368 6  99865663.993 6                  24388258.086
  24388262.367    24388262.242                          40.200          38.000

 134637992.466 6 104912762.124 5 100541384.934 6  25620764.313
  25620770.297    25620770.285    25620767.898          39.400          35.700
        38.500
 131470046.830 5 102254459.871 6                  24594258.164    24594258.391
  24594261.105    24594261.820                          34.600          36.700

 108397572.464 6                                  20313649.805    20313648.297
                                                        38.300

 109557823.069 8  85211645.762 7                  20466327.133    20466326.578
  20466325.262    20466324.898                          50.300          47.800

 127183911.489 6  98920838.653 5                  23750701.461    23750701.480
  23750700.340    23750700.914                          40.900          31.800

 129518353.836 6 100736414.407 6                  24254626.055    24254625.184
  24254629.781    24254629.637                          40.000          36.100

 125912784.121 7  97932184.003 6                  23562860.805    23562860.598
  23562861.883    23562862.504                          42.600          40.600

 122192430.452 7  95038600.260 7                  22874669.586    22874669.824
  22874671.613    22874672.258                          44.300          43.300

 127619663.370 5  99259478.733 5                  23865524.445    23865522.906
  23865529.488    23865529.613                          31.200          33.500

 106271931.696 8  82655931.858 8                  19859420.688    19859419.645
  19859417.902    19859418.102                          50.500          49.900

 107664605.793 8  83739124.585 8                  20169213.719    20169212.941
  20169209.746    20169210.367                          49.600          49.700

 129627084.506 5                                  24232420.320    24232420.234
                                                        35.100

 151313013.505 6                 112993445.987 6  28793923.688
                                  28793927.527          39.800
        37.900
 123496349.760 8                  92221284.009 8  23500575.602
                                  23500573.910          48.400
        52.700
 129036655.787 8                  96358514.211 8  24554864.234
                                  24554861.168          48.800
        51.000
 124778700.399 8                  93178880.905 8  23744601.703
                                  23744600.273          48.500
        51.500
 144901923.249 6                 108205952.853 6  27573934.547
                                  27573939.953          40.400
        41.500
 126334037.408 8                  94340315.040 8  24040570.414
                                  24040566.832          48.600
        51.000
 146838036.853 6                 109651746.501 6  27942357.523
                                  27942355.465          41.200
        41.000
 23 11  9 13  6 25.0000000  0 28G05G10G13G15G18G23G24G27G29G32R05R06
                                R07R08R09R15R16R20R21R22R23E03E07E08
                                E13E15E26E33
 124290901.831 7  96849977.506 7                  23651784.391
  23651787.480    23651787.625                          44.100          42.300

 127057588.152 7  99005897.566 6  94880640.593 7  24178257.133
  24178260.621    24178261.152    24178256.551          43.400          41.600
        46.100
 120629230.774 7  93996719.32244                  22954988.781
                  22954991.043                          43.600          28.400

 106894422.193 8  83294348.775 7                  20341337.594
  20341336.625    20341336.660                          48.800          47.900

 107140056.343 8  83485755.180 8  80007181.806 9  20388079.461
  20388078.047    20388078.078    20388079.445          49.500          53.400
        56.500
 112534275.520 7  87689049.822 7  84035331.651 8  21414566.008
  21414565.336    21414565.313    21414566.609          47.000          47.700
        51.400
 111410490.163 7  86813395.706 8  83196154.832 8  21200710.016
  21200713.090    21200713.156    21200710.609          47.300          49.100
        52.100
 129094932.438 6 100593560.836 6  96402148.477 7  24565982.172
  24565985.070    24565985.012    24565982.531          39.900          39.400
        44.700
 128164452.084 6  99868292.108 6                  24388899.883
  24388904.516    24388904.195                          40.500          38.100

 134634901.977 6 104910353.954 5 100539077.112 6  25620176.766
  25620181.797    25620182.414    25620179.887          39.700          35.500
        38.400
 131473139.681 5 102256865.396 6                  24594836.750    24594836.570
  24594840.711    24594840.453                          34.400          36.100

 108399181.921 6                                  20313951.352    20313949.805
                                                        38.000

 109556775.560 8  85210831.022 8                  20466131.430    20466130.914
  20466129.395    20466129.176                          50.800          48.100

 127181206.406 6  98918734.677 5                  23750195.898    23750196.281
  23750196.441    23750195.863                          41.200          32.500

 129514754.030 6 100733614.555 5                  24253952.117    24253951.285
  24253954.992    24253955.402                          40.300          35.700

 125913270.149 7  97932562.029 6                  23562952.609    23562951.715
  23562953.840    23562953.473                          43.400          41.700

 122190019.900 7  95036725.394 7                  22874218.898    22874218.750
  22874220.277    22874220.945                          44.600          43.300

 127624223.988 5  99263025.902 5                  23866376.500    23866375.895
  23866383.105    23866382.398                          31.800          33.700

 106274317.174 8  82657787.227 8                  19859866.727    19859865.285
  19859863.543    19859864.031                          50.900          49.500

 107662868.512 8  83737773.378 8                  20168888.016    20168887.609
  20168884.398    20168884.863                          50.000          49.600

 129622867.440 5                                  24231632.125    24231631.883
                                                        35.500

 151315618.655 6                 112995391.362 6  28794419.242
                                  28794423.395          39.500
        37.300
 123495776.819 8                  92220856.169 8  23500466.820
                                  23500464.980          48.600
        52.500
 129038463.931 8                  96359864.447 8  24555208.477
                                  24555205.316          49.200
        50.900
 124780127.548 8                  93179946.627 8  23744873.219
                                  23744871.805          48.200
        51.500
 144904873.963 6                 108208156.281 6  27574495.852
                                  27574501.527          40.300
        41.800
 126332600.942 8                  94339242.353 8  24040296.953
                                  24040293.426          49.100
        51.300
 146835185.393 6                 109649617.144 6  27941814.742
                                  27941813.063          41.200
        40.700
 23 11  9 13  6 26.0000000  0 28G05G10G13G15G18G23G24G27G29G32R05R06
                                R07R08R09R15R16R20R21R22R23E03E07E08
                                E13E15E26E33
 124293404.155 7  96851927.372 7                  23652260.586
  23652263.289    23652263.828                          44.300          42.100

 127055110.766 7  99003967.142 6  94878790.600 7  24177785.859
  24177789.113    24177789.621    24177785.086          43.100          41.300
        46.100
 120632558.555 7  93999312.41244                  22955622.438
                  22955624.301                          43.900          27.500

 106896092.066 8  83295649.971 8                  20341655.133
  20341654.543    20341654.426                          48.500          48.000

 107139581.381 8  83485385.078 8  80006827.122 9  20387988.766
  20387987.750    20387987.684    20387989.090          49.900          53.200
        56.500
 112532606.081 7  87687748.949 8  84034084.989 8  21414248.563
  21414247.922    21414247.738    21414248.934          47.200          48.000
        51.400
 111408420.604 7  86811783.064 8  83194609.382 8  21200315.938
  21200319.211    21200319.270    21200316.887          47.800          49.200
        52.200
 129094037.949 6 100592863.836 6  96401480.494 7  24565811.984
  24565815.145    24565814.828    24565812.246          39.600          39.300
        44.700
 128167824.824 6  99870920.212 6                  24389541.789
  24389546.059    24389546.078                          40.400          38.400

 134631811.668 6 104907945.892 5 100536769.408 6  25619588.102
  25619594.332    25619594.281    25619591.633          39.800          35.400
        38.400
 131476232.397 5 102259270.857 6                  24595415.656    24595414.609
  24595418.066    24595418.801                          35.000          36.200

 108400791.604 6                                  20314253.141    20314251.273
                                                        37.900

 109555728.426 8  85210016.596 8                  20465935.586    20465935.285
  20465934.555    20465933.648                          50.900          48.300

 127178501.550 6  98916630.904 5                  23749691.711    23749691.391
  23749691.125    23749690.965                          41.300          31.800

 129511154.085 6 100730814.609 6                  24253278.211    24253276.867
  24253280.563    24253281.289                          40.500          36.000

 125913756.974 7  97932940.661 6                  23563043.688    23563042.934
  23563044.773    23563044.684                          43.700          41.300

 122187609.874 7  95034850.941 7                  22873767.680    22873767.574
  22873768.957    22873769.707                          44.800          43.500

 127628784.738 5  99266573.147 5                  23867229.828    23867228.742
  23867235.836    23867235.438                          30.800          33.500

 106276703.507 8  82659643.251 8                  19860312.086    19860311.473
  19860309.031    19860309.801                          50.900          49.800

 107661132.054 8  83736422.798 8                  20168563.156    20168562.227
  20168559.371    20168559.504                          50.200          49.500

 129618650.571 6                                  24230843.648    24230843.371
                                                        36.300

 151318223.743 6                 112997336.706 6  28794915.008
                                  28794919.141          39.500
        37.200
 123495204.215 8                  92220428.563 8  23500357.664
                                  23500355.969          48.600
        52.200
 129040272.271 8                  96361214.819 8  24555552.516
                                  24555549.414          49.000
        50.100
 124781555.108 8                  93181012.659 8  23745144.695
                                  23745143.445          48.200
        51.400
 144907824.797 6                 108210359.842 6  27575057.586
                                  27575062.957          40.900
        41.500
 126331164.844 8                  94338169.928 8  24040023.727
                                  24040020.184          48.800
        51.400
 146832333.992 6                 109647487.873 6  27941272.273
                                  27941270.352          40.900
        40.900
 23 11  9 13  6 27.0000000  0 28G05G10G13G15G18G23G24G27G29G32R05R06
                                R07R08R09R15R16R20R21R22R23E03E07E08
                                E13E15E26E33
 124295906.615 7  96853877.342 7                  23652737.172
  23652739.695    23652740.051                          44.200          42.600

 127052633.345 7  99002036.703 6  94876940.578 7  24177314.109
  24177318.168    24177318.184    24177313.750          42.900          41.100
        46.000
 120635886.492 7  94001905.60444                  22956255.586
                  22956257.684                          43.900          28.300

 106897762.345 8  83296951.489 8                  20341973.250
  20341972.426    20341972.234                          48.500          48.100

 107139107.041 8  83485015.454 8  80006472.908 9  20387898.211
  20387897.379    20387897.395    20387898.801          49.300          53.400
        56.200
 112530936.786 7  87686448.201 8  84032838.427 8  21413930.695
  21413930.238    21413930.164    21413931.297          47.500          48.200
        51.400
 111406351.631 8  86810170.890 8  83193064.377 8  21199922.328
  21199925.395    21199925.578    21199923.090          48.000          49.200
        52.200
 129093144.020 6 100592167.268 6  96400812.975 7  24565641.977
  24565644.688    24565644.965    24565642.340          39.100          39.200
        44.900
 128171197.569 6  99873548.314 6                  24390183.641
  24390188.008    24390187.863                          40.200          38.400

 134628721.462 6 104905537.973 5 100534461.796 6  25618999.898
  25619006.520    25619006.273    25619003.844          39.900          35.300
        38.100
 131479324.979 5 102261676.190 5                  24595994.711    24595993.012
  24595996.523    24595997.359                          34.700          35.700

 108402401.523 6                                  20314554.313    20314553.398
                                                        38.100

 109554681.663 8  85209202.432 8                  20465740.156    20465739.633
  20465738.609    20465738.086                          51.000          48.000

 127175796.947 6  98914527.332 5                  23749186.484    23749186.219
  23749187.184    23749185.938                          40.500          32.200

 129507554.066 6 100728014.613 6                  24252604.281    24252602.156
  24252607.148    24252607.102                          40.700          36.700

 125914244.638 7  97933319.971 6                  23563134.914    23563133.836
  23563135.496    23563135.832                          43.100          40.700

 122185200.345 7  95032976.846 7                  22873316.641    22873316.344
  22873318.672    22873318.684                          45.000          43.700

 127633345.574 5  99270120.427 5                  23868082.938    23868081.582
  23868089.852    23868088.277                          30.600          33.800

 106279090.640 8  82661499.910 8                  19860758.766    19860757.590
  19860755.352    19860756.020                          51.000          49.600

 107659396.405 8  83735072.845 8                  20168238.070    20168237.234
  20168233.773    20168234.379                          50.500          50.000

 129614433.854 6                                  24230055.469    24230055.559
                                                        36.600

 151320828.802 6                 112999282.055 6  28795410.742
                                  28795414.824          39.600
        37.000
 123494631.917 8                  92220001.201 8  23500248.766
                                  23500247.121          48.400
        52.700
 129042080.761 8                  96362565.316 8  24555896.516
                                  24555893.543          49.100
        50.000
 124782983.076 8                  93182078.999 8  23745416.570
                                  23745415.164          48.400
        51.600
 144910775.755 6                 108212563.454 6  27575619.391
                                  27575624.555          41.000
        41.900
 126329729.081 8                  94337097.777 8  24039750.617
                                  24039746.945          48.800
        50.800
 146829482.665 6                 109645358.625 6  27940729.414
                                  27940727.637          41.200
        40.700
 23 11  9 13  6 28.0000000  0 28G05G10G13G15G18G23G24G27G29G32R05R06
                                R07R08R09R15R16R20R21R22R23E03E07E08
                                E13E15E26E33
 124298409.159 7  96855827.361 7                  23653213.422
  23653216.039    23653216.180                          44.100          42.200

 127050155.872 7  99000106.196 6  94875090.517 7  24176842.750
  24176846.363    24176846.762    24176842.363          43.100          41.000
        46.100
 120639214.530 7  94004498.87344                  22956889.055
                  22956890.863                          43.900          27.500

 106899432.983 8  83298253.278 8                  20342291.086
  20342290.445    20342290.258                          48.400          48.400

 107138633.270 8  83484646.288 8  80006119.117 9  20387807.766
  20387807.148    20387807.301    20387808.691          49.200          53.100
        56.400
 112529267.608 7  87685147.549 8  84031591.967 8  21413613.328
  21413612.516    21413612.559    21413613.590          47.400          48.100
        51.100
 111404283.205 8  86808559.123 8  83191519.767 8  21199528.617
  21199531.934    21199532.000    21199529.449          48.100          48.900
        51.900
 129092250.667 6 100591471.148 6  96400145.844 7  24565472.094
  24565475.379    24565475.035    24565472.105          39.400          39.200
        44.700
 128174570.263 6  99876176.368 6                  24390825.305
  24390829.910    24390829.672                          39.900          38.000

 134625631.353 6 104903130.088 5 100532154.234 6  25618412.008
  25618417.645    25618418.113    25618415.785          39.600          34.800
        38.100
 131482417.366 5 102264081.393 5                  24596573.352    24596571.730
  24596574.664    24596575.883                          34.700          35.500

 108404011.601 6                                  20314856.383    20314854.762
                                                        38.100

 109553635.192 8  85208388.517 8                  20465544.328    20465544.191
  20465543.563    20465542.465                          51.100          48.200

 127173092.497 6  98912423.853 5                  23748680.406    23748681.164
  23748680.402    23748681.004                          40.800          32.900

 129503953.851 6 100725214.449 6                  24251929.586    24251928.535
  24251932.340    24251932.859                          41.100          37.000

 125914732.997 7  97933699.810 6                  23563226.242    23563225.746
  23563227.012    23563227.117                          43.800          41.200

 122182791.281 7  95031103.151 7                  22872865.578    22872865.230
  22872867.738    22872867.617                          45.200          43.800

 127637906.413 5  99273667.754 5                  23868935.781    23868934.363
  23868942.063    23868941.082                          30.600          33.200

 106281478.538 8  82663357.168 8                  19861204.539    19861203.871
  19861202.051    19861202.137                          51.400          50.000

 107657661.513 8  83733723.483 8                  20167913.109    20167912.059
  20167908.875    20167909.402                          50.700          50.200

 129610217.375 6                                  24229268.289    24229267.352
                                                        37.100

 151323433.719 6                 113001227.287 6  28795906.508
                                  28795910.316          39.200
        36.500
 123494059.880 8                  92219574.031 8  23500139.977
                                  23500138.230          48.500
        52.600
 129043889.367 8                  96363915.903 8  24556240.945
                                  24556237.645          49.200
        50.300
 124784411.397 8                  93183145.601 8  23745688.438
                                  23745686.938          48.200
        51.500
 144913726.798 6                 108214767.155 6  27576180.867
                                  27576186.004          41.200
        41.800
 126328293.612 8                  94336025.836 8  24039477.422
                                  24039473.820          49.100
        50.600
 146826631.333 6                 109643229.384 6  27940186.867
                                  27940185.137          41.900
        40.700
 23 11  9 13  6 29.0000000  0 28G05G10G13G15G18G23G24G27G29G32R05R06
                                R07R08R09R15R16R20R21R22R23E03E07E08
                                E13E15E26E33
 124300911.876 7  96857777.530 7                  23653689.477
  23653692.145    23653692.418                          43.200          42.200

 127047678.447 7  98998175.727 6  94873240.495 7  24176371.484
  24176374.785    24176375.441    24176370.844          43.300          41.100
        46.300
 120642542.775 7  94007092.31344                  22957521.953
                  22957524.242                          43.700          27.600

 106901104.075 8  83299555.423 8                  20342608.953
  20342608.605    20342608.223                          48.600          48.200

 107138160.176 8  83484277.641 8  80005765.829 9  20387718.227
  20387717.520    20387717.148    20387718.613          49.300          53.100
        56.100
 112527598.635 7  87683847.049 8  84030345.652 8  21413295.445
  21413294.883    21413294.863    21413296.078          47.600          48.000
        51.500
 111402215.394 7  86806947.838 8  83189975.623 8  21199134.984
  21199138.598    21199138.480    21199135.984          47.800          49.100
        51.900
 129091357.954 6 100590775.522 6  96399479.199 7  24565302.250
  24565305.723    24565305.270    24565302.449          39.800          39.500
        45.100
 128177942.976 6  99878804.447 6                  24391467.211
  24391471.527    24391471.578                          39.400          37.900

 134622541.448 6 104900722.332 5 100529846.821 6  25617823.930
  25617830.063    25617830.051    25617827.930          39.500          34.700
        38.400
 131485509.695 5 102266486.501 5                  24597151.820    24597149.559
  24597153.277    24597154.547                          34.500          35.100

 108405621.975 6                                  20315157.359    20315156.570
                                                        38.400

 109552589.121 8  85207574.904 8                  20465349.273    20465348.793
  20465347.781    20465347.180                          50.700          48.200

 127170388.259 6  98910320.544 5                  23748176.484    23748176.055
  23748174.496    23748176.125                          40.800          33.300

 129500353.534 6 100722414.231 6                  24251255.453    24251254.418
  24251258.270    24251258.609                          41.000          37.900

 125915222.208 7  97934080.280 6                  23563317.500    23563316.402
  23563318.430    23563318.746                          43.000          40.800

 122180382.793 7  95029229.889 7                  22872414.695    22872414.539
  22872417.137    22872416.859                          45.500          43.700

 127642467.417 5  99277215.164 5                  23869789.164    23869787.133
  23869795.695    23869793.797                          30.800          33.100

 106283867.258 8  82665215.065 8                  19861651.047    19861650.219
  19861648.590    19861648.648                          51.300          50.000

 107655927.480 8  83732374.783 8                  20167587.750    20167587.293
  20167583.871    20167584.570                          50.900          50.400

 129606001.107 6                                  24228479.359    24228479.117
                                                        37.400

 151326038.631 6                 113003172.499 6  28796401.852
                                  28796406.027          39.800
        36.200
 123493488.212 8                  92219147.137 8  23500030.883
                                  23500029.484          48.800
        52.200
 129045698.192 8                  96365266.645 8  24556584.922
                                  24556581.918          49.400
        50.300
 124785840.166 8                  93184212.534 8  23745960.211
                                  23745958.902          48.200
        51.100
 144916678.017 6                 108216970.965 6  27576742.539
                                  27576747.664          41.300
        41.600
 126326858.554 8                  94334954.197 8  24039204.375
                                  24039200.746          49.600
        50.900
 146823780.096 6                 109641100.199 6  27939644.094
                                  27939642.355          41.900
        40.900
 23 11  9 13  6 30.0000000  0 28G05G10G13G15G18G23G24G27G29G32R05R06
                                R07R08R09R15R16R20R21R22R23E03E07E08
                                E13E15E26E33
 124303414.730 7  96859727.793 6                  23654165.609
  23654169.016    23654168.633                          43.100          41.800

 127045200.995 7  98996245.243 6  94871390.438 7  24175899.641
  24175903.656    24175903.984    24175899.531          43.300          41.300
        46.200
 120645871.143 7  94009685.83444                  22958155.500
                  22958157.477                          44.200          27.900

 106902775.542 8  83300857.870 8                  20342926.766
  20342926.469    20342926.461                          48.900          48.200

 107137687.694 8  83483909.474 8  80005412.993 9  20387628.422
  20387627.520    20387627.398    20387628.676          49.200          53.100
        56.400
 112525929.800 7  87682546.659 8  84029099.447 8  21412978.000
  21412977.188    21412977.289    21412978.527          47.600          48.100
        51.600
 111400148.168 7  86805337.012 8  83188431.909 8  21198741.750
  21198745.238    21198744.965    21198742.629          47.400          49.100
        51.900
 129090465.806 6 100590080.352 6  96398812.999 7  24565132.422
  24565135.508    24565135.336    24565132.574          39.900          39.700
        45.200
 128181315.683 6  99881432.529 6                  24392109.164
  24392113.148    24392113.352                          39.400          38.300

 134619451.611 6 104898314.686 5 100527539.482 6  25617236.039
  25617242.703    25617242.172    25617240.004          39.400          35.000
        38.000
 131488601.875 5 102268891.504 5                  24597728.773    24597728.094
  24597731.125    24597732.863                          34.700          34.400

 108407232.538 6                                  20315460.156    20315458.477
                                                        38.800

 109551543.380 8  85206761.549 8                  20465153.930    20465153.438
  20465152.199    20465151.789                          50.900          48.200

 127167684.170 6  98908217.432 5                  23747671.719    23747671.063
  23747671.102    23747671.141                          41.200          33.900

 129496753.129 6 100719613.937 6                  24250581.406    24250580.355
  24250584.418    24250584.418                          41.200          38.500

 125915712.177 7  97934461.383 6                  23563409.109    23563408.742
  23563409.449    23563410.242                          43.600          40.500

 122177974.824 7  95027357.020 7                  22871964.031    22871963.941
  22871965.938    22871966.004                          45.500          44.100

 127647028.407 5  99280762.609 5                  23870641.742    23870639.910
  23870648.961    23870646.840                          30.000          32.800

 106286256.727 8  82667073.530 8                  19862097.906    19862096.684
  19862094.176    19862095.203                          51.100          49.800

 107654194.232 8  83731026.696 8                  20167263.078    20167262.660
  20167259.461    20167259.863                          51.100          50.500

 129601784.995 6                                  24227690.906    24227691.332
                                                        37.900

 151328643.440 6                 113005117.648 6  28796897.680
                                  28796901.785          39.700
        36.600
 123492916.845 8                  92218720.455 8  23499922.461
                                  23499920.711          48.800
        52.300
 129047507.159 8                  96366617.490 8  24556929.016
                                  24556926.184          49.600
        50.200
 124787269.308 8                  93185279.752 8  23746232.070
                                  23746230.859          48.200
        51.400
 144919629.336 6                 108219174.861 6  27577304.422
                                  27577309.176          41.200
        41.300
 126325423.816 8                  94333882.802 8  24038931.438
                                  24038927.715          49.300
        50.900
 146820928.913 7                 109638971.071 6  27939101.930
                                  27939099.961          42.100
        40.900
 23 11  9 13  6 31.0000000  0 28G05G10G13G15G18G23G24G27G29G32R05R06
                                R07R08R09R15R16R20R21R22R23E03E07E08
                                E13E15E26E33
 124305917.668 7  96861678.143 7                  23654642.125
  23654645.066    23654644.789                          43.500          42.000

 127042723.487 7  98994314.720 6  94869540.362 7  24175428.727
  24175432.109    24175432.469    24175428.027          43.300          40.800
        46.200
 120649199.609 7  94012279.43544                  22958789.289
                  22958790.898                          43.800          28.100

 106904447.395 8  83302160.601 8                  20343245.406
  20343244.648    20343244.504                          49.000          48.600

 107137215.794 8  83483541.758 8  80005060.606 9  20387538.656
  20387537.695    20387537.516    20387538.875          49.500          53.100
        56.500
 112524261.096 7  87681246.368 7  84027853.332 8  21412660.523
  21412659.520    21412659.813    21412660.906          47.600          47.900
        51.300
 111398081.491 7  86803726.611 8  83186888.612 8  21198348.516
  21198352.086    21198351.793    21198349.383          47.800          49.300
        52.000
 129089574.233 6 100589385.624 6  96398147.204 7  24564962.703
  24564965.563    24564965.793    24564962.770          40.100          39.200
        44.700
 128184688.350 6  99884060.545 6                  24392751.422
  24392755.020    24392755.195                          39.700          38.300

 134616361.884 6 104895907.144 5 100525232.236 6  25616648.648
  25616654.395    25616654.184    25616651.867          39.500          35.900
        38.100
 131491693.865 5 102271296.365 5                  24598308.359    24598306.391
  24598310.348    24598311.316                          35.700          34.600

 108408843.301 6                                  20315761.984    20315760.191
                                                        38.400

 109550497.975 8  85205948.465 8                  20464958.883    20464958.082
  20464957.141    20464956.551                          51.000          48.000

 127164980.260 6  98906114.337 5                  23747166.563    23747165.820
  23747166.676    23747166.180                          41.600          34.200

 129493152.558 6 100716813.470 6                  24249907.383    24249905.914
  24249909.535    24249910.305                          41.700          38.400

 125916202.887 7  97934843.036 6                  23563501.344    23563500.301
  23563501.379    23563502.117                          43.600          41.100

 122175567.365 7  95025484.543 7                  22871513.305    22871513.063
  22871515.043    22871515.387                          45.000          43.900

 127651589.420 4  99284310.072 5                  23871493.570    23871492.848
  23871499.848    23871499.879                          29.900          33.100

 106288646.939 8  82668932.580 8                  19862544.203    19862543.570
  19862541.387    19862541.805                          51.400          49.600

 107652461.745 8  83729679.210 8                  20166938.750    20166938.152
  20166934.629    20166935.328                          51.200          50.300

 129597569.106 6                                  24226903.055    24226903.262
                                                        37.900

 151331248.157 6                 113007062.711 5  28797393.445
                                  28797397.348          39.400
        35.600
 123492345.744 8                  92218293.993 8  23499813.719
                                  23499812.012          48.900
        52.000
 129049316.260 8                  96367968.434 8  24557273.461
                                  24557270.348          49.700
        50.400
 124788698.830 8                  93186347.243 8  23746504.398
                                  23746502.828          48.500
        51.500
 144922580.744 6                 108221378.832 6  27577866.070
                                  27577870.895          41.300
        41.500
 126323989.386 8                  94332811.636 8  24038658.477
                                  24038654.711          49.500
        51.000
 146818077.744 7                 109636841.928 6  27938559.406
                                  27938557.449          42.100
        40.700
 23 11  9 13  6 32.0000000  0 28G05G10G13G15G18G23G24G27G29G32R05R06
                                R07R08R09R15R16R20R21R22R23E03E07E08
                                E13E15E26E33
 124308420.738 7  96863628.599 6                  23655118.500
  23655121.301    23655121.211                          43.300          41.400

 127040245.995 7  98992384.196 6  94867690.267 7  24174957.086
  24174960.836    24174961.203    24174956.543          43.500          41.100
        46.100
 120652528.267 7  94014873.19144                  22959422.281
                  22959424.301                          44.100          28.100

 106906119.651 8  83303463.666 8                  20343563.375
  20343562.840    20343562.910                          49.000          48.300

 107136744.533 8  83483174.544 8  80004708.689 9  20387448.906
  20387448.137    20387447.836    20387449.172          49.600          53.200
        56.300
 112522592.550 7  87679946.199 7  84026607.352 8  21412342.906
  21412341.957    21412342.363    21412343.367          47.700          47.900
        51.800
 111396015.412 7  86802116.677 8  83185345.756 8  21197955.391
  21197958.891    21197958.613    21197956.156          47.900          49.400
        52.200
 129088683.296 6 100588691.372 6  96397481.869 7  24564792.523
  24564796.152    24564796.246    24564793.242          40.200          39.900
        44.500
 128188060.993 6  99886688.589 6                  24393393.180
  24393396.906    24393396.965                          40.400          38.500

 134613272.348 6 104893499.683 5 100522925.080 6  25616060.250
  25616065.891    25616066.141    25616063.734          40.000          35.400
        38.100
 131494785.719 5 102273701.161 5                  24598887.602    24598885.027
  24598889.566    24598889.711                          35.900          34.300

 108410454.341 6                                  20316063.828    20316062.301
                                                        38.600

 109549452.944 8  85205135.661 7                  20464763.461    20464763.043
  20464761.813    20464761.367                          51.100          47.900

 127162276.533 6  98904011.486 5                  23746660.891    23746661.379
  23746661.465    23746661.309                          41.500          33.800

 129489551.857 6 100714012.950 6                  24249233.234    24249231.648
  24249235.191    24249236.020                          41.400          38.900

 125916694.410 7  97935225.336 6                  23563592.852    23563592.113
  23563594.129    23563594.180                          43.400          41.100

 122173160.437 7  95023612.501 7                  22871062.047    22871062.035
  22871064.949    22871064.781                          44.600          44.300

 127656150.582 4  99287857.609 5                  23872347.828    23872345.594
  23872352.445    23872352.742                          29.300          33.500

 106291037.951 8  82670792.262 8                  19862991.484    19862990.199
  19862988.340    19862988.633                          51.700          49.300

 107650730.101 8  83728332.376 8                  20166614.258    20166613.715
  20166609.941    20166610.953                          50.900          50.300

 129593353.411 6                                  24226115.563    24226114.785
                                                        37.800

 151333852.830 6                 113009007.735 5  28797889.375
                                  28797893.164          39.600
        35.300
 123491774.975 8                  92217867.769 8  23499705.086
                                  23499703.383          48.300
        52.200
 129051125.527 8                  96369319.517 8  24557617.688
                                  24557614.629          49.800
        50.400
 124790128.752 8                  93187415.045 8  23746776.586
                                  23746774.973          48.600
        51.500
 144925532.299 6                 108223582.895 6  27578427.391
                                  27578432.383          41.400
        41.400
 126322555.324 8                  94331740.743 8  24038385.398
                                  24038381.863          49.400
        51.000
 146815226.621 7                 109634712.840 6  27938016.844
                                  27938014.887          42.100
        40.700
 23 11  9 13  6 33.0000000  0 28G05G10G13G15G18G23G24G27G29G32R05R06
                                R07R08R09R15R16R20R21R22R23E03E07E08
                                E13E15E26E33
 124310923.981 7  96865579.154 6                  23655595.164
  23655598.012    23655597.484                          43.400          41.400

 127037768.499 7  98990453.674 6  94865840.200 7  24174485.938
  24174489.453    24174489.742    24174485.145          43.300          41.300
        46.100
 120655857.067 7  94017467.06444                  22960055.844
                  22960057.875                          44.100          28.400

 106907792.327 8  83304767.045 8                  20343881.961
  20343881.063    20343880.988                          48.800          48.600

 107136273.917 8  83482807.824 8  80004357.253 9  20387359.609
  20387358.355    20387358.348    20387359.578          49.600          53.400
        56.100
 112520924.187 7  87678646.175 8  84025361.483 8  21412025.227
  21412024.875    21412024.961    21412025.855          47.900          48.300
        51.700
 111393949.924 8  86800507.208 8  83183803.352 8  21197562.383
  21197565.809    21197565.695    21197563.152          48.100          49.500
        52.200
 129087792.942 6 100587997.572 6  96396816.985 7  24564623.680
  24564627.047    24564626.875    24564623.977          40.100          39.800
        44.400
 128191433.645 6  99889316.630 6                  24394034.047
  24394038.488    24394038.586                          40.000          37.900

 134610182.921 6 104891092.329 5 100520618.043 6  25615472.438
  25615477.852    25615478.145    25615476.043          40.000          35.600
        37.700
 131497877.500 6 102276105.850 5                  24599464.930    24599464.027
  24599467.660    24599467.945                          36.400          34.000

 108412065.585 6                                  20316365.695    20316364.117
                                                        38.800

 109548408.273 8  85204323.134 7                  20464568.305    20464567.832
  20464566.121    20464566.016                          51.700          47.600

 127159573.069 6  98901908.733 5                  23746156.492    23746156.602
  23746156.422    23746156.383                          41.400          34.200

 129485951.104 6 100711212.363 6                  24248558.078    24248557.363
  24248561.418    24248561.602                          41.200          38.000

 125917186.703 7  97935608.243 6                  23563685.055    23563684.547
  23563685.391    23563686.418                          43.500          40.600

 122170754.028 7  95021740.857 7                  22870611.984    22870611.840
  22870613.891    22870614.477                          44.600          44.500

 127660711.776 4  99291405.178 5                  23873200.422    23873198.461
  23873205.234    23873205.703                          29.200          33.500

 106293429.799 8  82672652.578 8                  19863438.219    19863437.113
  19863435.352    19863435.664                          51.300          49.500

 107648999.271 8  83726986.175 8                  20166290.344    20166289.406
  20166286.113    20166286.672                          51.000          50.000

 129589137.917 6                                  24225327.328    24225326.438
                                                        37.900

 151336457.453 6                 113010952.728 5  28798384.953
                                  28798388.723          39.900
        35.500
 123491204.536 8                  92217441.787 8  23499596.633
                                  23499594.844          48.600
        52.300
 129052934.965 8                  96370670.720 8  24557962.039
                                  24557959.004          49.500
        50.800
 124791559.095 8                  93188483.157 8  23747048.531
                                  23747047.227          48.800
        51.500
 144928483.979 6                 108225787.059 6  27578989.289
                                  27578994.055          41.600
        41.400
 126321121.606 8                  94330670.114 8  24038112.648
                                  24038108.969          49.700
        51.300
 146812375.573 6                 109632583.809 6  27937474.227
                                  27937472.398          41.800
        40.700
 23 11  9 13  6 34.0000000  0 28G05G10G13G15G18G23G24G27G29G32R05R06
                                R07R08R09R15R16R20R21R22R23E03E07E08
                                E13E15E26E33
 124313427.276 7  96867529.775 6                  23656071.141
  23656074.195    23656074.027                          43.500          41.600

 127035290.960 7  98988523.138 6  94863990.076 7  24174014.352
  24174018.055    24174018.238    24174013.711          43.800          41.100
        46.300
 120659185.983 7  94020061.01544                  22960689.648
                  22960691.406                          44.100          28.900

 106909465.379 8  83306070.713 8                  20344200.352
  20344199.488    20344199.406                          48.500          48.500

 107135803.885 8  83482441.566 8  80004006.250 9  20387269.992
  20387268.910    20387268.777    20387270.164          49.400          53.600
        56.400
 112519255.937 7  87677346.255 8  84024115.723 8  21411707.875
  21411707.328    21411707.570    21411708.426          47.800          48.500
        51.700
 111391885.004 8  86798898.185 8  83182261.365 8  21197169.773
  21197172.887    21197172.750    21197170.160          48.200          49.400
        52.200
 129086903.147 6 100587304.231 6  96396152.530 7  24564454.422
  24564457.820    24564457.695    24564454.594          40.400          40.200
        44.400
 128194806.254 6  99891944.626 6                  24394676.250
  24394680.262    24394680.254                          40.100          38.000

 134607093.594 6 104888685.075 5 100518311.074 6  25614883.938
  25614890.168    25614890.238    25614888.254          39.700          35.900
        38.000
 131500969.060 6 102278510.377 5                  24600044.320    24600042.746
  24600045.816    24600046.461                          37.100          33.800

 108413676.987 6                                  20316666.773    20316665.871
                                                        38.900

 109547363.947 8  85203510.884 7                  20464373.273    20464372.637
  20464371.824    20464371.008                          51.400          47.300

 127156869.805 6  98899806.215 5                  23745651.984    23745651.785
  23745652.469    23745651.598                          41.400          34.600

 129482350.174 6 100708411.673 6                  24247883.969    24247882.984
  24247886.828    24247887.320                          40.500          37.500

 125917679.770 7  97935991.736 6                  23563777.203    23563776.617
  23563778.074    23563778.535                          43.100          41.300

 122168348.124 7  95019869.593 7                  22870161.719    22870161.230
  22870163.344    22870163.918                          44.600          44.500

 127665273.029 4  99294952.832 5                  23874053.172    23874050.867
  23874059.113    23874058.855                          28.600          33.100

 106295822.418 8  82674513.505 8                  19863885.523    19863884.359
  19863882.121    19863882.773                          51.000          49.500

 107647269.197 8  83725640.558 8                  20165966.227    20165965.320
  20165961.742    20165962.629                          50.500          49.800

 129584922.592 6                                  24224539.141    24224538.766
                                                        37.800

 151339061.969 6                 113012897.679 5  28798880.453
                                  28798884.234          39.000
        35.500
 123490634.372 8                  92217016.016 8  23499487.984
                                  23499486.434          48.300
        52.400
 129054744.544 8                  96372022.020 8  24558306.445
                                  24558303.285          49.700
        50.300
 124792989.802 8                  93189551.537 8  23747320.773
                                  23747319.410          48.800
        51.200
 144931435.757 6                 108227991.320 6  27579551.078
                                  27579555.688          41.700
        41.100
 126319688.221 8                  94329599.724 8  24037839.898
                                  24037836.293          49.700
        51.100
 146809524.560 7                 109630454.806 6  27936931.953
                                  27936929.895          42.300
        41.000
 23 11  9 13  6 35.0000000  0 28G05G10G13G15G18G23G24G27G29G32R05R06
                                R07R08R09R15R16R20R21R22R23E03E07E08
                                E13E15E26E33
 124315930.740 7  96869480.529 6                  23656547.109
  23656550.629    23656550.359                          43.700          41.600

 127032813.407 7  98986592.584 6  94862139.974 7  24173542.742
  24173546.773    24173546.844    24173542.352          43.700          41.200
        46.300
 120662515.064 7  94022655.10444                  22961322.492
                  22961324.961                          43.900          27.500

 106911138.838 8  83307374.717 8                  20344518.617
  20344517.715    20344517.910                          48.400          48.300

 107135334.492 8  83482075.798 8  80003655.733 9  20387180.727
  20387179.617    20387179.559    20387180.883          49.500          53.900
        56.700
 112517587.877 7  87676046.444 8  84022870.079 8  21411390.711
  21411389.859    21411389.984    21411391.043          47.800          48.500
        51.300
 111389820.672 7  86797289.607 8  83180719.820 8  21196776.313
  21196779.746    21196779.852    21196777.281          47.600          49.200
        52.200
 129086013.977 6 100586611.350 6  96395488.533 7  24564284.719
  24564288.512    24564288.574    24564285.434          40.200          39.900
        44.100
 128198178.877 6  99894572.637 6                  24395317.875
  24395322.000    24395322.090                          39.800          37.900

 134604004.414 6 104886277.930 5 100516004.206 6  25614297.008
  25614302.867    25614302.449    25614300.332          39.900          35.400
        38.400
 131504060.545 6 102280914.867 5                  24600622.008    24600620.914
  24600624.836    24600624.879                          37.500          33.400

 108415288.658 6                                  20316968.805    20316967.875
                                                        38.700

 109546320.000 8  85202698.916 7                  20464178.477    20464177.715
  20464176.617    20464176.094                          51.500          46.600

 127154166.795 6  98897703.861 5                  23745147.188    23745146.988
  23745147.820    23745146.816                          41.300          34.600

 129478749.107 6 100705610.868 6                  24247209.570    24247208.863
  24247213.742    24247212.902                          40.100          36.900

 125918173.604 7  97936375.824 6                  23563869.414    23563869.043
  23563871.191    23563870.957                          42.500          41.000

 122165942.741 7  95017998.749 7                  22869711.523    22869710.871
  22869713.051    22869713.723                          44.600          44.100

 127669834.299 4  99298500.491 5                  23874906.281    23874903.738
  23874913.078    23874911.777                          28.900          33.500

 106298215.818 8  82676375.034 8                  19864332.938    19864331.563
  19864329.758    19864330.023                          50.800          49.900

 107645539.934 8  83724295.580 8                  20165642.242    20165641.277
  20165637.770    20165638.715                          50.600          49.600

 129580707.500 6                                  24223751.844    24223750.664
                                                        37.900

 151341666.401 6                 113014842.546 5  28799376.039
                                  28799379.887          39.100
        34.900
 123490064.534 8                  92216590.486 8  23499379.734
                                  23499377.922          48.300
        52.500
 129056554.296 8                  96373373.453 8  24558650.766
                                  24558647.805          49.600
        50.400
 124794420.917 8                  93190620.232 8  23747593.180
                                  23747591.758          48.300
        51.100
 144934387.661 6                 108230195.650 6  27580112.688
                                  27580117.410          41.900
        41.100
 126318255.181 8                  94328529.597 8  24037567.148
                                  24037563.531          49.400
        51.100
 146806673.611 7                 109628325.829 6  27936389.188
                                  27936387.219          42.300
        41.100
 23 11  9 13  6 36.0000000  0 28G05G10G13G15G18G23G24G27G29G32R05R06
                                R07R08R09R15R16R20R21R22R23E03E07E08
                                E13E15E26E33
 124318434.347 7  96871431.376 7                  23657024.234
  23657026.957    23657026.871                          43.300          42.100

 127030335.857 7  98984662.020 6  94860289.850 7  24173071.492
  24173075.297    24173075.375    24173070.695          43.700          41.200
        46.300
 120665844.308 7  94025249.30544                  22961956.391
                  22961958.445                          43.900          27.900

 106912812.704 8  83308679.018 8                  20344837.313
  20344836.262    20344836.473                          48.500          48.400

 107134865.720 8  83481710.523 8  80003305.672 9  20387091.734
  20387090.469    20387090.297    20387091.645          49.700          53.900
        56.700
 112515919.943 7  87674746.776 8  84021624.555 8  21411073.078
  21411072.215    21411072.520    21411073.617          47.900          48.400
        51.200
 111387756.925 7  86795681.508 8  83179178.716 8  21196383.695
  21196387.359    21196387.219    21196384.535          47.600          49.300
        52.500
 129085125.389 6 100585918.952 6  96394824.971 7  24564116.180
  24564119.617    24564119.523    24564116.367          40.100          40.300
        44.600
 128201551.491 6  99897200.638 6                  24395959.773
  24395963.898    24395963.875                          39.700          38.100

 134600915.372 6 104883870.822 5 100513697.479 6  25613708.563
  25613715.160    25613714.762    25613712.684          39.600          35.800
        38.400
 131507151.903 6 102283319.223 5                  24601200.641    24601199.508
  24601203.453    24601203.074                          37.600          34.000

 108416900.512 6                                  20317271.727    20317270.082
                                                        39.000

 109545276.416 8  85201887.247 7                  20463983.320    20463982.828
  20463981.305    20463981.117                          51.600          46.800

 127151463.997 6  98895601.693 5                  23744642.500    23744642.043
  23744642.773    23744642.191                          40.900          34.600

 129475147.957 6 100702809.993 6                  24246535.234    24246534.434
  24246538.277    24246538.305                          39.600          37.000

 125918668.239 7  97936760.544 6                  23563961.930    23563961.652
  23563963.809    23563963.570                          42.600          41.000

 122163537.871 7  95016128.297 7                  22869261.070    22869260.543
  22869263.664    22869263.473                          44.100          43.800

 127674395.691 4  99302048.264 5                  23875759.219    23875757.793
  23875765.094    23875764.742                          29.300          33.100

 106300609.998 8  82678237.177 8                  19864779.500    19864778.852
  19864777.066    19864777.359                          51.300          49.900

 107643811.487 8  83722951.243 8                  20165318.313    20165317.438
  20165313.984    20165314.898                          50.500          49.600

 129576492.600 6                                  24222963.156    24222962.625
                                                        37.200

 151344270.831 6                 113016787.393 5  28799871.359
                                  28799875.539          38.700
        34.900
 123489495.013 8                  92216165.192 8  23499271.273
                                  23499269.617          48.600
        52.500
 129058364.198 8                  96374724.998 8  24558995.117
                                  24558992.090          49.400
        50.500
 124795852.434 8                  93191689.220 8  23747865.555
                                  23747864.168          48.700
        51.200
 144937339.708 6                 108232400.092 6  27580674.578
                                  27580679.090          41.900
        41.300
 126316822.488 8                  94327459.721 8  24037294.422
                                  24037290.957          49.100
        50.700
 146803822.710 7                 109626196.912 6  27935846.484
                                  27935844.695          42.100
        40.800
 23 11  9 13  6 37.0000000  0 28G05G10G13G15G18G23G24G27G29G32R05R06
                                R07R08R09R15R16R20R21R22R23E03E07E08
                                E13E15E26E33
 124320938.141 7  96873382.371 7                  23657500.305
  23657503.418    23657503.395                          43.500          42.200

 127027858.336 7  98982731.471 6  94858439.743 7  24172600.281
  24172603.594    24172603.906    24172599.359          43.600          41.100
        46.300
 120669173.708 7  94027843.62844                  22962589.813
                  22962592.082                          44.100          28.100

 106914487.011 8  83309983.670 8                  20345155.617
  20345155.039    20345155.156                          48.500          48.700

 107134397.615 8  83481345.761 8  80002956.111 9  20387002.461
  20387001.281    20387001.367    20387002.547          49.400          53.700
        56.900
 112514252.241 7  87673447.249 8  84020379.180 8  21410755.664
  21410754.984    21410755.160    21410756.328          47.800          48.500
        50.900
 111385693.819 8  86794073.883 8  83177638.075 8  21195991.250
  21195994.594    21195994.602    21195992.008          48.100          49.200
        52.100
 129084237.447 6 100585227.047 6  96394161.897 7  24563946.836
  24563950.449    24563950.504    24563947.453          40.300          40.300
        44.700
 128204924.154 6  99899828.670 6                  24396601.445
  24396605.734    24396605.551                          39.600          37.900

 134597826.476 6 104881463.932 5 100511390.839 6  25613120.672
  25613127.188    25613126.883    25613124.777          39.400          35.700
        38.000
 131510243.135 6 102285723.507 5                  24601779.117    24601777.883
  24601780.676    24601781.445                          38.100          34.000

 108418512.663 6                                  20317574.063    20317572.090
                                                        38.400

 109544233.241 8  85201075.887 7                  20463788.219    20463787.844
  20463787.027    20463786.203                          51.000          47.000

 127148761.445 6  98893499.716 5                  23744137.938    23744137.496
  23744138.148    23744137.688                          40.700          34.600

 129471546.718 6 100700009.024 6                  24245860.523    24245859.594
  24245864.332    24245863.789                          39.700          37.900

 125919163.717 7  97937145.904 6                  23564055.594    23564054.359
  23564056.020    23564056.316                          42.300          41.600

 122161133.558 7  95014258.294 7                  22868811.055    22868810.551
  22868812.297    22868813.457                          44.200          43.600

 127678957.244 4  99305596.043 5                  23876612.977    23876610.895
  23876618.563    23876617.816                          29.300          33.400

 106303005.020 8  82680099.971 8                  19865228.031    19865226.578
  19865224.609    19865224.977                          51.200          49.400

 107642083.913 8  83721607.560 8                  20164994.758    20164994.051
  20164990.332    20164991.305                          50.700          49.500

 129572277.900 6                                  24222175.648    24222175.090
                                                        37.800

 151346875.188 6                 113018732.216 5  28800367.492
                                  28800371.129          38.700
        34.800
 123488925.829 8                  92215740.156 8  23499162.891
                                  23499161.309          48.600
        52.600
 129060174.317 8                  96376076.710 8  24559339.758
                                  24559336.605          49.800
        50.400
 124797284.393 8                  93192758.536 8  23748138.133
                                  23748136.570          48.500
        51.300
 144940291.893 7                 108234604.649 6  27581236.164
                                  27581240.965          42.300
        41.400
 126315390.177 8                  94326390.147 8  24037021.898
                                  24037018.324          49.300
        50.500
 146800971.909 6                 109624068.063 6  27935304.180
                                  27935302.316          41.900
        40.200
 23 11  9 13  6 38.0000000  0 28G05G10G13G15G18G23G24G27G29G32R05R06
                                R07R08R09R15R16R20R21R22R23E03E07E08
                                E13E15E26E33
 124323441.982 7  96875333.414 7                  23657976.680
  23657979.957    23657979.871                          43.400          42.300

 127025380.714 7  98980800.871 6  94856589.580 7  24172128.617
  24172131.984    24172132.309    24172127.852          43.900          40.400
        46.100
 120672503.197 7  94030438.03644                  22963224.031
                  22963225.676                          44.000          28.200

 106916161.647 8  83311288.575 8                  20345474.586
  20345473.691    20345473.797                          48.700          48.100

 107133930.061 8  83480981.432 8  80002606.963 9  20386913.313
  20386912.512    20386912.242    20386913.582          49.700          53.700
        56.900
 112512584.600 8  87672147.791 8  84019133.869 8  21410438.148
  21410437.781    21410437.926    21410438.965          48.100          48.300
        51.300
 111383631.223 7  86792466.670 8  83176097.832 8  21195598.836
  21195602.074    21195601.961    21195599.504          47.800          49.200
        52.200
 129083350.021 6 100584535.556 6  96393499.212 7  24563778.141
  24563781.605    24563781.922    24563778.832          40.700          40.400
        44.900
 128208296.728 6  99902456.627 6                  24397243.156
  24397247.547    24397247.297                          39.500          37.900

 134594737.652 6 104879057.026 5 100509084.225 6  25612533.273
  25612539.270    25612539.004    25612536.637          39.500          35.600
        38.100
 131513334.136 6 102288127.639 5                  24602357.156    24602356.199
  24602358.969    24602359.586                          38.100          33.000

 108420124.951 6                                  20317875.891    20317874.309
                                                        38.700

 109543190.328 8  85200264.724 7                  20463593.695    20463593.258
  20463592.160    20463591.332                          51.100          47.100

 127146059.002 6  98891397.815 5                  23743633.125    23743633.043
  23743634.305    23743633.156                          41.300          34.100

 129467945.289 6 100697207.929 6                  24245186.680    24245185.098
  24245189.926    24245189.453                          39.800          38.900

 125919659.899 7  97937531.821 6                  23564148.758    23564146.910
  23564149.137    23564149.293                          42.400          41.400

 122158729.708 7  95012388.632 7                  22868361.516    22868359.945
  22868362.992    22868363.383                          43.900          43.900

 127683518.682 4  99309143.860 5                  23877466.016    23877463.809
  23877472.043    23877470.992                          29.200          33.700

 106305400.728 8  82681963.296 8                  19865675.180    19865674.262
  19865671.625    19865672.680                          50.900          49.300

 107640357.047 8  83720264.452 8                  20164671.031    20164670.328
  20164667.121    20164667.758                          50.800          49.500

 129568063.319 6                                  24221388.250    24221386.859
                                                        37.500

 151349479.414 6                 113020676.939 5  28800862.930
                                  28800866.648          38.600
        34.900
 123488356.895 8                  92215315.300 8  23499054.633
                                  23499053.113          48.800
        52.800
 129061984.508 8                  96377428.476 8  24559684.125
                                  24559681.035          49.600
        50.600
 124798716.674 8                  93193828.094 8  23748410.617
                                  23748409.199          48.200
        51.500
 144943244.139 7                 108236809.223 6  27581798.063
                                  27581803.004          42.300
        41.500
 126313958.135 8                  94325320.763 8  24036749.523
                                  24036745.918          49.000
        50.300
 146798121.081 6                 109621939.189 6  27934761.742
                                  27934759.836          41.900
        40.500
 23 11  9 13  6 39.0000000  0 28G05G10G13G15G18G23G24G27G29G32R05R06
                                R07R08R09R15R16R20R21R22R23E03E07E08
                                E13E15E26E33
 124325946.011 7  96877284.613 7                  23658453.172
  23658456.563    23658456.449                          43.300          42.100

 127022903.147 7  98978870.297 6  94854739.448 7  24171657.336
  24171660.176    24171660.793    24171656.328          43.700          40.900
        45.900
 120675832.897 7  94033032.61144                  22963857.492
                  22963859.438                          43.800          27.900

 106917836.737 8  83312593.837 8                  20345793.133
  20345792.695    20345792.688                          48.500          48.000

 107133463.170 8  83480617.629 8  80002258.313 9  20386824.430
  20386823.645    20386823.426    20386824.691          49.500          53.300
        56.700
 112510917.165 7  87670848.500 8  84017888.705 8  21410121.625
  21410120.613    21410120.473    21410121.625          47.900          48.400
        51.300
 111381569.251 8  86790859.932 8  83174558.041 8  21195206.195
  21195209.609    21195209.566    21195207.246          48.200          49.000
        52.200
 129082463.254 6 100583844.534 6  96392837.005 7  24563609.703
  24563612.645    24563612.996    24563609.992          40.500          40.800
        45.200
 128211669.282 6  99905084.615 6                  24397885.539
  24397889.410    24397889.156                          39.200          38.100

 134591649.006 6 104876650.315 6 100506777.784 6  25611945.805
  25611951.063    25611951.203    25611948.797          39.700          36.200
        38.600
 131516425.015 6 102290531.651 5                  24602934.961    24602934.730
  24602936.902    24602937.551                          38.400          32.400

 108421737.542 6                                  20318178.883    20318177.203
                                                        38.600

 109542147.793 8  85199453.870 7                  20463398.578    20463398.340
  20463397.188    20463396.707                          51.300          47.600

 127143356.831 6  98889296.114 5                  23743128.523    23743128.031
  23743130.535    23743128.551                          41.300          34.400

 129464343.806 6 100694406.760 6                  24244512.078    24244510.855
  24244515.676    24244515.207                          39.700          38.600

 125920156.918 7  97937918.388 6                  23564240.891    23564240.051
  23564242.086    23564242.234                          42.600          41.600

 122156326.449 7  95010519.428 7                  22867910.758    22867910.504
  22867912.805    22867913.371                          44.300          43.800

 127688080.312 4  99312691.749 5                  23878318.359    23878316.660
  23878324.684    23878323.965                          28.900          34.000

 106307797.261 8  82683827.266 8                  19866123.102    19866121.953
  19866120.188    19866120.566                          51.000          49.100

 107638631.036 8  83718921.990 8                  20164348.156    20164347.035
  20164343.340    20164344.500                          50.800          49.900

 129563849.019 6                                  24220599.359    24220599.184
                                                        37.900

 151352083.627 6                 113022621.580 5  28801358.633
                                  28801362.180          37.900
        34.700
 123487788.320 8                  92214890.710 8  23498946.578
                                  23498944.824          48.600
        52.300
 129063794.915 8                  96378780.396 8  24560028.633
                                  24560025.508          49.600
        50.800
 124800149.404 8                  93194897.988 8  23748683.156
                                  23748681.867          48.000
        51.500
 144946196.547 7                 108239013.952 6  27582359.984
                                  27582364.641          42.300
        40.900
 126312526.501 8                  94324251.671 8  24036476.883
                                  24036473.430          49.100
        50.800
 146795270.348 7                 109619810.385 6  27934219.297
                                  27934217.273          42.000
        40.900
 23 11  9 13  6 40.0000000  0 28G05G10G13G15G18G23G24G27G29G32R05R06
                                R07R08R09R15R16R20R21R22R23E03E07E08
                                E13E15E26E33
 124328450.118 7  96879235.848 7                  23658929.930
  23658933.078    23658932.965                          43.200          42.200

 127020425.478 7  98976939.647 6  94852889.240 7  24171185.617
  24171188.746    24171189.184    24171184.973          43.900          40.900
        46.200
 120679162.645 7  94035627.21844                  22964491.109
                  22964492.953                          43.900          27.900

 106919512.155 8  83313899.349 8                  20346111.867
  20346111.504    20346111.473                          48.600          48.000

 107132996.830 8  83480254.242 8  80001910.074 9  20386735.750
  20386734.918    20386734.652    20386735.957          49.500          53.300
        56.600
 112509249.816 8  87669549.253 8  84016643.603 8  21409803.633
  21409803.105    21409803.293    21409804.344          48.200          48.600
        51.300
 111379507.800 7  86789253.601 8  83173018.650 8  21194814.023
  21194817.391    21194817.344    21194814.820          47.500          49.100
        52.300
 129081576.987 6 100583153.937 6  96392175.175 7  24563440.547
  24563444.008    24563444.313    24563441.457          40.900          40.600
        45.000
 128215041.796 6  99907712.525 6                  24398527.688
  24398531.621    24398530.867                          39.400          38.200

 134588560.427 6 104874243.613 6 100504471.365 6  25611357.875
  25611363.875    25611363.516    25611361.363          39.600          36.500
        38.800
 131519515.712 6 102292935.518 5                  24603513.203    24603512.379
  24603515.445    24603515.598                          38.200          31.800

 108423350.283 6                                  20318480.273    20318478.977
                                                        38.800

 109541105.536 8  85198643.209 7                  20463204.016    20463203.688
  20463202.906    20463201.922                          51.000          47.000

 127140654.797 6  98887194.581 5                  23742623.258    23742623.941
  23742625.219    23742624.125                          41.400          34.000

 129460742.124 6 100691605.478 6                  24243837.930    24243836.426
  24243841.633    24243840.734                          39.700          38.300

 125920654.610 7  97938305.504 6                  23564334.555    23564333.465
  23564336.156    23564335.340                          43.100          41.500

 122153923.641 7  95008650.587 7                  22867460.820    22867460.559
  22867463.211    22867463.629                          44.100          43.900

 127692641.936 4  99316239.656 5                  23879171.141    23879169.320
  23879177.773    23879177.105                          29.400          33.800

 106310194.519 8  82685691.788 8                  19866571.539    19866569.863
  19866568.137    19866568.484                          51.200          49.300

 107636905.764 8  83717580.122 8                  20164024.250    20164023.691
  20164020.547    20164021.180                          50.300          49.700

 129559634.885 6                                  24219811.719    24219811.180
                                                        38.500

 151354687.692 6                 113024566.183 5  28801854.047
                                  28801857.637          37.900
        34.600
 123487219.978 8                  92214466.297 8  23498838.391
                                  23498836.676          48.600
        52.100
 129065605.403 8                  96380132.379 8  24560373.039
                                  24560370.000          49.800
        50.300
 124801582.451 8                  93195968.113 8  23748955.992
                                  23748954.488          48.100
        51.900
 144949149.009 7                 108241218.698 6  27582921.805
                                  27582926.559          42.400
        40.500
 126311095.117 8                  94323182.787 8  24036204.555
                                  24036201.047          48.800
        50.200
 146792419.591 6                 109617681.564 6  27933676.773
                                  27933674.957          41.700
        40.600
 23 11  9 13  6 41.0000000  0 28G05G10G13G15G18G23G24G27G29G32R05R06
                                R07R08R09R15R16R20R21R22R23E03E07E08
                                E13E15E26E33
 124330954.387 7  96881187.229 7                  23659406.508
  23659409.344    23659409.488                          43.500          42.100

 127017947.863 7  98975009.025 6  94851039.069 7  24170714.188
  24170717.008    24170717.637    24170713.418          43.400          40.800
        46.200
 120682492.618 7  94038221.99444                  22965124.750
                  22965126.547                          44.000          27.300

 106921188.025 8  83315205.227 8                  20346430.953
  20346430.324    20346430.434                          48.700          48.000

 107132531.174 8  83479891.399 8  80001562.334 9  20386647.383
  20386646.414    20386646.156    20386647.383          49.700          53.700
        56.800
 112507582.679 7  87668250.193 8  84015398.670 8  21409486.984
  21409485.898    21409485.938    21409487.098          47.900          48.700
        51.600
 111377446.989 7  86787647.778 8  83171479.739 8  21194421.945
  21194425.082    21194425.219    21194422.867          47.500          49.200
        52.200
 129080691.396 6 100582463.857 6  96391513.849 7  24563272.039
  24563275.469    24563275.629    24563272.883          40.900          40.200
        44.900
 128218414.343 6  99910340.478 6                  24399168.914
  24399172.758    24399172.715                          39.700          38.100

 134585472.007 6 104871837.074 6 100502165.098 6  25610769.922
  25610776.152    25610775.805    25610773.625          39.200          36.300
        38.800
 131522606.271 6 102295339.282 5                  24604091.242    24604090.844
  24604093.742    24604093.578                          38.500          31.600

 108424963.277 6                                  20318783.133    20318781.176
                                                        38.900

 109540063.687 8  85197832.899 7                  20463009.656    20463008.977
  20463007.766    20463007.348                          51.200          47.000

 127137953.050 6  98885093.208 5                  23742119.430    23742119.313
  23742119.340    23742119.629                          41.200          34.100

 129457140.420 6 100688804.147 6                  24243162.828    24243162.012
  24243166.340    24243166.250                          40.300          38.300

 125921153.168 7  97938693.274 6                  23564427.914    23564426.352
  23564428.871    23564428.637                          42.600          41.600

 122151521.404 7  95006782.173 7                  22867011.750    22867010.953
  22867014.211    22867013.875                          44.200          43.700

 127697203.620 4  99319787.662 5                  23880024.273    23880022.379
  23880031.535    23880030.262                          29.600          33.700

 106312592.654 8  82687557.010 8                  19867019.547    19867018.086
  19867015.969    19867016.629                          50.700          49.200

 107635181.378 8  83716238.918 8                  20163702.039    20163700.902
  20163697.598    20163698.117                          50.500          49.800

 129555421.005 6                                  24219025.094    24219023.492
                                                        38.600

 151357291.746 6                 113026510.776 5  28802349.344
                                  28802353.328          37.200
        33.600
 123486652.002 8                  92214042.155 8  23498730.234
                                  23498728.648          48.600
        52.100
 129067416.125 8                  96381484.532 8  24560717.820
                                  24560714.578          49.900
        50.300
 124803015.953 8                  93197038.589 8  23749228.719
                                  23749227.305          48.000
        51.900
 144952101.647 7                 108243423.599 6  27583483.734
                                  27583488.262          42.100
        41.100
 126309664.142 8                  94322114.204 8  24035932.250
                                  24035928.785          48.900
        50.300
 146789568.951 6                 109615552.845 6  27933134.188
                                  27933132.547          41.500
        40.900
 23 11  9 13  6 42.0000000  0 28G05G10G13G15G18G23G24G27G29G32R05R06
                                R07R08R09R15R16R20R21R22R23E03E07E08
                                E13E15E26E33
 124333458.776 7  96883138.689 7                  23659883.227
  23659885.930    23659886.098                          43.700          42.300

 127015470.200 7  98973078.379 6  94849188.860 7  24170241.719
  24170245.793    24170246.285    24170241.914          43.600          40.800
        46.500
 120685822.698 7  94040816.86044                  22965758.039
                  22965760.293                          43.900          28.900

 106922864.267 8  83316511.389 8                  20346749.813
  20346749.348    20346749.406                          48.600          48.300

 107132066.113 8  83479529.006 8  80001215.051 9  20386558.609
  20386557.531    20386557.563    20386558.867          49.600          53.500
        56.900
 112505915.673 7  87666951.224 8  84014153.822 8  21409169.484
  21409168.418    21409168.789    21409169.863          47.900          48.800
        51.900
 111375386.737 7  86786042.388 8  83169941.233 8  21194029.906
  21194032.793    21194033.031    21194030.750          47.600          48.800
        51.800
 129079806.353 6 100581774.196 6  96390852.927 7  24563103.414
  24563106.883    24563107.301    24563104.617          40.600          39.900
        44.500
 128221786.847 6  99912968.392 6                  24399810.805
  24399814.805    24399814.605                          39.300          38.100

 134582383.706 6 104869430.603 5 100499858.894 6  25610182.242
  25610188.707    25610188.152    25610186.027          38.700          35.800
        38.500
 131525696.682 6 102297742.970 5                  24604669.297    24604669.000
  24604671.875    24604671.551                          38.500          31.600

 108426576.492 6                                  20319084.820    20319083.496
                                                        38.800

 109539022.189 8  85197022.837 7                  20462814.750    20462814.395
  20462813.242    20462812.871                          51.100          47.500

 127135251.482 6  98882991.970 5                  23741615.031    23741614.344
  23741614.957    23741615.262                          41.300          33.000

 129453538.554 6 100686002.705 6                  24242488.563    24242487.715
  24242492.191    24242491.828                          40.600          38.300

 125921652.481 7  97939081.626 6                  23564520.898    23564519.992
  23564522.082    23564522.063                          43.000          41.600

 122149119.639 7  95004914.140 7                  22866561.547    22866561.086
  22866563.621    22866564.258                          43.800          43.700

 127701765.40114  99323335.653 5                  23880878.000    23880875.816
  23880885.094    23880883.188                          29.700          34.100

 106314991.542 8  82689422.807 8                  19867467.352    19867466.391
  19867464.512    19867464.910                          50.900          49.200

 107633457.768 8  83714898.334 8                  20163378.359    20163377.922
  20163374.391    20163375.348                          50.600          49.400

 129551207.302 6                                  24218237.078    24218235.801
                                                        37.900

 151359895.699 6                 113028455.282 5  28802844.914
                                  28802848.828          37.300
        33.200
 123486084.313 8                  92213618.238 8  23498622.148
                                  23498620.613          48.300
        52.400
 129069226.961 8                  96382836.787 8  24561062.375
                                  24561059.203          49.700
        50.100
 124804449.832 8                  93198109.340 8  23749501.750
                                  23749500.152          48.200
        51.900
 144955054.380 6                 108245628.539 6  27584045.484
                                  27584050.297          41.600
        41.300
 126308233.478 8                  94321045.848 8  24035660.086
                                  24035656.523          49.100
        50.600
 146786718.342 7                 109613424.119 6  27932591.750
                                  27932590.199          42.000
        40.800
 23 11  9 13  6 43.0000000  0 28G05G10G13G15G18G23G24G27G29G32R05R06
                                R07R08R09R15R16R20R21R22R23E03E07E08
                                E13E15E26E33
 124335963.275 7  96885090.244 7                  23660359.547
  23660362.461    23660362.566                          43.700          42.500

 127012992.533 7  98971147.715 6  94847338.647 7  24169771.367
  24169774.605    24169774.625    24169770.547          43.200          40.800
        46.200
 120689152.897 7  94043411.81344                  22966392.164
                  22966393.910                          44.100          27.700

 106924540.906 8  83317817.854 8                  20347068.695
  20347068.434    20347068.477                          48.100          48.700

 107131601.666 8  83479167.102 8  80000868.224 9  20386470.375
  20386469.227    20386469.324    20386470.469          49.500          53.700
        56.800
 112504248.807 7  87665652.372 8  84012909.090 8  21408852.242
  21408851.242    21408851.492    21408852.691          47.900          48.500
        51.700
 111373327.060 7  86784437.443 8  83168403.156 8  21193637.602
  21193641.031    21193641.172    21193638.801          47.600          48.600
        52.100
 129078921.917 6 100581085.047 6  96390192.457 7  24562935.406
  24562938.883    24562938.828    24562936.258          40.900          39.400
        44.000
 128225159.350 6  99915596.313 6                  24400452.242
  24400456.879    24400456.188                          39.300          37.900

 134579295.527 6 104867024.230 5 100497552.776 6  25609594.688
  25609600.926    25609600.469    25609598.359          39.100          35.800
        38.400
 131528786.923 6 102300146.478 5                  24605247.789    24605247.211
  24605250.531    24605249.621                          38.600          30.500

 108428189.877 6                                  20319387.516    20319385.770
                                                        39.000

 109537981.043 8  85196213.063 7                  20462620.461    20462620.031
  20462618.805    20462618.219                          51.000          47.400

 127132550.113 6  98880890.908 5                  23741110.164    23741110.141
  23741109.680    23741110.742                          41.600          32.600

 129449936.548 6 100683201.176 6                  24241814.047    24241813.016
  24241817.844    24241817.254                          40.900          38.500

 125922152.559 7  97939470.560 6                  23564613.883    23564613.172
  23564615.863    23564615.633                          42.600          40.900

 122146718.390 7  95003046.507 7                  22866112.469    22866111.480
  22866114.055    22866114.703                          43.700          43.900

 127706327.181 4  99326883.736 5                  23881731.625    23881728.586
  23881737.559    23881736.469                          28.700          33.700

 106317391.164 8  82691289.183 8                  19867916.258    19867914.941
  19867912.742    19867913.445                          51.000          49.100

 107631734.933 8  83713558.345 8                  20163055.711    20163055.348
  20163051.777    20163052.590                          50.400          49.400

 129546993.785 6                                  24217449.688    24217448.301
                                                        37.500

 151362499.570 6                 113030399.733 5  28803340.836
                                  28803344.332          36.800
        32.700
 123485516.925 8                  92213194.533 8  23498514.125
                                  23498512.641          48.200
        52.300
 129071037.949 8                  96384189.155 8  24561406.945
                                  24561403.906          49.500
        50.200
 124805884.086 8                  93199180.380 8  23749774.391
                                  23749773.070          48.400
        51.700
 144958007.229 7                 108247833.594 6  27584607.789
                                  27584612.125          42.200
        41.000
 126306803.157 8                  94319977.758 8  24035387.883
                                  24035384.324          48.900
        50.900
 146783867.757 6                 109611295.457 6  27932049.195
                                  27932047.828          41.800
        40.800
 23 11  9 13  6 44.0000000  0 28G05G10G13G15G18G23G24G27G29G32R05R06
                                R07R08R09R15R16R20R21R22R23E03E07E08
                                E13E15E26E33
 124338467.928 7  96887041.921 7                  23660836.469
  23660839.629    23660839.285                          43.600          42.600

 127010514.872 7  98969217.087 6  94845488.446 7  24169299.352
  24169303.277    24169303.020    24169299.070          43.000          40.800
        46.000
 120692483.311 7  94046006.93644                  22967025.766
                  22967027.652                          44.100          27.500

 106926217.972 8  83319124.655 8                  20347388.125
  20347387.637    20347387.676                          48.400          48.800

 107131137.876 8  83478805.703 8  80000521.891 9  20386382.180
  20386380.996    20386381.035    20386382.250          49.800          53.500
        57.200
 112502582.135 8  87664353.667 8  84011664.499 8  21408534.828
  21408534.348    21408534.516    21408535.570          48.000          48.300
        51.600
 111371267.995 7  86782832.981 8  83166865.549 8  21193245.789
  21193249.473    21193249.352    21193247.020          47.700          48.700
        52.000
 129078038.082 6 100580396.355 6  96389532.472 7  24562767.438
  24562770.441    24562770.648    24562768.141          40.600          39.400
        44.400
 128228531.861 6  99918224.228 6                  24401093.969
  24401099.016    24401098.039                          39.400          37.900

 134576207.517 6 104864617.986 5 100495246.803 6  25609007.461
  25609013.160    25609012.742    25609010.570          39.400          35.500
        38.300
 131531877.111 6 102302549.952 4                  24605825.938    24605825.320
  24605828.402    24605827.664                          38.800          29.500

 108429803.544 6                                  20319689.383    20319688.148
                                                        39.200

 109536940.322 8  85195403.603 7                  20462426.039    20462425.734
  20462424.316    20462423.871                          50.700          47.600

 127129848.984 6  98878790.005 5                  23740604.742    23740605.938
  23740606.309    23740606.285                          41.700          33.300

 129446334.423 6 100680399.514 6                  24241139.508    24241138.383
  24241142.164    24241142.727                          41.100          39.000

 125922653.418 7  97939860.113 6                  23564708.000    23564707.164
  23564709.184    23564709.320                          43.000          41.100

 122144317.694 7  95001179.313 7                  22865662.508    22865662.172
  22865665.203    22865665.332                          43.500          43.600

 127710889.15114  99330431.878 5                  23882584.070    23882581.570
  23882590.195    23882589.387                          28.900          34.000

 106319791.613 8  82693156.186 8                  19868364.492    19868363.332
  19868361.883    19868362.086                          51.000          49.000

 107630012.942 8  83712219.032 8                  20162733.703    20162732.734
  20162728.992    20162729.922                          50.700          49.700

 129542780.529 6                                  24216661.531    24216660.863
                                                        37.500

 151365103.420 6                 113032344.166 5  28803836.078
                                  28803839.633          36.200
        32.300
 123484949.885 8                  92212771.097 8  23498406.289
                                  23498404.781          48.100
        52.400
 129072849.136 8                  96385541.656 8  24561751.578
                                  24561748.523          49.800
        50.100
 124807318.792 8                  93200251.741 8  23750047.680
                                  23750046.047          48.100
        51.900
 144960960.228 7                 108250038.755 6  27585169.531
                                  27585174.098          42.000
        40.700
 126305373.209 8                  94318909.940 8  24035115.789
                                  24035112.324          49.100
        50.700
 146781017.265 7                 109609166.834 6  27931506.734
                                  27931505.223          42.000
        40.900
 23 11  9 13  6 45.0000000  0 28G05G10G13G15G18G23G24G27G29G32R05R06
                                R07R08R09R15R16R20R21R22R23E03E07E08
                                E13E15E26E33
 124340972.686 7  96888993.661 7                  23661312.867
  23661315.918    23661315.980                          42.800          42.500

 127008037.144 7  98967286.402 6  94843638.212 7  24168828.703
  24168831.570    24168831.641    24168827.559          42.700          41.100
        45.900
 120695813.814 7  94048602.12944                  22967659.625
                  22967661.367                          43.900          27.900

 106927895.396 8  83320431.742 8                  20347707.258
  20347706.723    20347706.895                          48.500          48.800

 107130674.667 8  83478444.762 8  80000175.993 9  20386293.961
  20386293.035    20386292.828    20386294.082          49.400          53.700
        56.800
 112500915.583 7  87663055.055 8  84010419.993 8  21408217.805
  21408217.125    21408217.316    21408218.441          47.900          48.300
        51.500
 111369209.489 7  86781228.947 8  83165328.354 8  21192854.258
  21192857.590    21192857.707    21192855.289          47.800          48.900
        51.800
 129077154.808 6 100579708.077 6  96388872.872 7  24562599.031
  24562602.516    24562602.438    24562599.898          40.100          39.900
        44.400
 128231904.325 6  99920852.114 6                  24401735.570
  24401740.520    24401739.539                          39.400          37.600

 134573119.608 6 104862211.806 5 100492940.877 6  25608419.586
  25608425.520    25608425.086    25608423.039          38.500          35.700
        38.300
 131534967.156 6 102304953.252 5                  24606403.688    24606402.789
  24606407.078    24606405.723                          39.400          30.100

 108431417.371 6                                  20319992.516    20319990.707
                                                        39.100

 109535899.895 8  85194594.383 7                  20462231.469    20462231.199
  20462229.695    20462229.520                          50.700          47.500

 127127148.012 6  98876689.253 5                  23740100.906    23740101.789
  23740101.082    23740101.801                          41.800          33.600

 129442732.175 6 100677597.791 6                  24240464.414    24240464.078
  24240468.977    24240467.996                          40.800          39.400

 125923155.047 7  97940250.251 6                  23564801.938    23564800.789
  23564802.148    23564803.367                          42.600          41.200

 122141917.504 7  94999312.482 7                  22865213.797    22865212.891
  22865215.910    22865216.020                          43.200          43.300

 127715451.150 4  99333980.086 5                  23883436.469    23883434.129
  23883442.699    23883442.617                          29.800          34.000

 106322192.824 8  82695023.795 8                  19868813.672    19868812.164
  19868810.281    19868810.730                          51.200          48.700

 107628291.728 8  83710880.298 8                  20162411.125    20162410.184
  20162406.629    20162407.652                          50.700          50.100

 129538567.423 6                                  24215873.586    24215872.988
                                                        37.500

 151367707.177 6                 113034288.466 5  28804331.469
                                  28804334.961          36.600
        31.300
 123484383.111 8                  92212347.856 8  23498298.430
                                  23498296.844          48.500
        52.500
 129074660.446 8                  96386894.253 8  24562096.320
                                  24562093.121          49.400
        50.100
 124808753.839 8                  93201323.366 8  23750320.578
                                  23750319.191          48.200
        51.700
 144963913.338 7                 108252243.986 6  27585731.383
                                  27585735.930          42.000
        40.400
 126303943.567 8                  94317842.345 8  24034843.750
                                  24034840.203          49.000
        50.800
 146778166.794 7                 109607038.220 6  27930964.555
                                  27930962.902          42.100
        40.900
 23 11  9 13  6 46.0000000  0 28G05G10G13G15G18G23G24G27G29G32R05R06
                                R07R08R09R15R16R20R21R22R23E03E07E08
                                E13E15E26E33
 124343477.605 7  96890945.544 7                  23661789.445
  23661792.594    23661792.629                          43.000          42.700

 127005559.444 7  98965355.711 6  94841787.983 7  24168357.094
  24168360.102    24168360.043    24168356.203          43.000          40.600
        46.200
 120699144.503 7  94051197.46944                  22968293.242
                  22968295.137                          44.200          26.500

 106929573.264 8  83321739.176 8                  20348026.695
  20348026.102    20348026.180                          48.400          48.800

 107130212.119 8  83478084.333 8  79999830.575 9  20386205.898
  20386204.840    20386204.793    20386206.086          49.400          53.700
        57.000
 112499249.222 7  87661756.582 8  84009175.626 8  21407900.516
  21407899.906    21407900.152    21407901.375          47.500          48.200
        51.900
 111367151.607 7  86779625.411 8  83163791.626 8  21192462.797
  21192465.754    21192466.000    21192463.676          47.600          48.700
        51.600
 129076272.178 6 100579020.317 6  96388213.768 7  24562430.844
  24562434.641    24562434.574    24562432.250          40.400          39.800
        44.700
 128235276.812 6  99923480.025 6                  24402377.758
  24402382.055    24402381.332                          38.600          37.400

 134570031.843 6 104859805.742 5 100490635.070 6  25607832.141
  25607837.980    25607837.445    25607835.363          39.200          35.800
        37.500
 131538057.067 6 102307356.514 5                  24606981.484    24606981.203
  24606984.316    24606983.824                          39.200          30.200

 108433031.460 6                                  20320294.234    20320293.230
                                                        39.200

 109534859.836 8  85193785.452 7                  20462037.789    20462037.008
  20462035.625    20462035.336                          50.800          47.600

 127124447.269 6  98874588.664 5                  23739597.391    23739597.063
  23739597.035    23739597.430                          41.600          33.800

 129439129.830 6 100674795.980 6                  24239790.344    24239789.531
  24239794.656    24239793.438                          40.900          39.600

 125923657.507 7  97940641.071 6                  23564896.266    23564895.371
  23564896.719    23564897.238                          43.100          40.600

 122139517.860 7  94997446.099 7                  22864763.961    22864763.816
  22864766.094    22864766.836                          43.200          43.000

 127720013.170 4  99337528.304 5                  23884290.258    23884287.281
  23884296.949    23884295.664                          29.900          33.300

 106324594.880 8  82696892.056 8                  19869262.438    19869261.016
  19869259.277    19869259.512                          51.000          49.000

 107626571.350 8  83709542.230 8                  20162088.781    20162087.977
  20162084.656    20162085.172                          50.400          50.400

 129534354.534 6                                  24215086.688    24215085.383
                                                        37.000

 151370310.856 6                 113036232.815 5  28804826.961
                                  28804829.891          36.400
        31.200
 123483816.675 8                  92211924.866 8  23498190.734
                                  23498189.137          48.500
        52.200
 129076471.943 8                  96388246.998 8  24562441.063
                                  24562437.875          49.200
        49.900
 124810189.328 8                  93202395.329 8  23750593.914
                                  23750592.395          48.000
        51.800
 144966866.581 6                 108254449.303 6  27586293.469
                                  27586297.797          41.800
        40.700
 126302514.320 8                  94316775.038 8  24034571.727
                                  24034568.320          48.900
        50.700
 146775316.409 6                 109604909.694 6  27930421.922
                                  27930420.469          41.600
        41.100
 23 11  9 13  6 47.0000000  0 28G05G10G13G15G18G23G24G27G29G32R05R06
                                R07R08R09R15R16R20R21R22R23E03E07E08
                                E13E15E26E33
 124345982.666 7  96892897.524 7                  23662265.648
  23662268.973    23662269.219                          42.300          42.500

 127003081.724 7  98963425.010 6  94839937.720 7  24167885.297
  24167888.773    24167888.457    24167884.617          43.000          40.400
        46.100
 120702475.335 7  94053792.91544                  22968927.078
                  22968928.875                          44.200          27.600

 106931251.532 8  83323046.924 8                  20348345.867
  20348345.465    20348345.527                          48.800          48.900

 107129750.187 8  83477724.382 8  79999485.623 9  20386117.906
  20386117.039    20386116.934    20386118.168          49.300          53.900
        56.700
 112497583.021 7  87660458.246 7  84007931.381 8  21407583.344
  21407582.949    21407583.219    21407584.203          47.600          47.900
        51.900
 111365094.304 7  86778022.315 8  83162255.325 8  21192071.531
  21192074.273    21192074.539    21192072.172          47.300          48.400
        52.000
 129075390.133 6 100578333.004 6  96387555.081 7  24562263.164
  24562267.242    24562266.918    24562264.223          39.900          39.900
        44.800
 128238649.314 6  99926107.922 6                  24403019.633
  24403023.445    24403022.957                          38.300          37.500

 134566944.231 6 104857399.813 5 100488329.372 6  25607244.250
  25607250.457    25607249.992    25607247.938          40.100          35.900
        37.500
 131541146.859 6 102309759.644 5                  24607560.758    24607559.016
  24607563.398    24607561.820                          39.100          30.700

 108434645.778 6                                  20320597.625    20320595.742
                                                        39.100

 109533820.117 8  85192976.781 7                  20461843.195    20461842.750
  20461841.074    20461840.988                          50.600          47.900

 127121746.728 6  98872488.236 5                  23739093.508    23739092.789
  23739092.930    23739092.895                          41.700          34.000

 129435527.379 6 100671994.083 6                  24239115.609    24239114.348
  24239117.895    24239118.840                          40.500          39.800

 125924160.762 7  97941032.499 6                  23564989.773    23564988.938
  23564991.199    23564991.410                          42.400          41.200

 122137118.723 7  94995580.098 7                  22864314.445    22864314.668
  22864317.285    22864317.715                          43.100          43.700

 127724575.264 4  99341076.629 5                  23885143.422    23885141.082
  23885150.203    23885148.785                          29.400          32.800

 106326997.693 8  82698760.907 8                  19869710.914    19869710.055
  19869707.957    19869708.660                          51.200          49.000

 107624851.784 8  83708204.782 8                  20161766.500    20161765.742
  20161762.688    20161763.238                          50.800          50.500

 129530141.853 6                                  24214299.086    24214298.137
                                                        36.900

 151372914.515 5                 113038177.093 5  28805322.273
                                  28805325.109          35.700
        30.500
 123483250.559 8                  92211502.119 8  23498082.906
                                  23498081.324          48.800
        52.800
 129078283.606 8                  96389599.852 8  24562785.828
                                  24562782.586          49.300
        50.000
 124811625.211 8                  93203467.569 8  23750867.070
                                  23750865.566          48.200
        51.900
 144969819.940 7                 108256654.749 6  27586855.281
                                  27586859.621          42.000
        41.100
 126301085.401 8                  94315707.990 8  24034299.742
                                  24034296.309          49.300
        50.900
 146772466.089 6                 109602781.185 6  27929879.625
                                  27929878.215          41.400
        41.200
 23 11  9 13  6 48.0000000  0 28G05G10G13G15G18G23G24G27G29G32R05R06
                                R07R08R09R15R16R20R21R22R23E03E07E08
                                E13E15E26E33
 124348487.793 7  96894849.590 7                  23662742.609
  23662745.578    23662745.859                          43.100          42.700

 127000603.976 7  98961494.303 6  94838087.472 7  24167414.297
  24167417.113    24167416.934    24167413.145          43.700          40.800
        45.700
 120705806.305 7  94056388.47644                  22969561.008
                  22969562.793                          44.100          27.700

 106932930.189 8  83324354.955 8                  20348665.297
  20348664.820    20348664.922                          49.100          49.000

 107129288.867 8  83477364.913 8  79999141.133 9  20386030.047
  20386029.348    20386029.066    20386030.414          49.300          53.800
        56.900
 112495916.942 7  87659160.003 8  84006687.240 8  21407266.852
  21407265.969    21407266.164    21407267.180          47.900          48.200
        51.800
 111363037.567 7  86776419.663 8  83160719.449 8  21191679.797
  21191683.086    21191683.055    21191680.887          47.500          48.200
        52.000
 129074508.689 6 100577646.151 6  96386896.857 7  24562095.898
  24562099.320    24562099.129    24562096.461          39.700          39.600
        44.300
 128242021.746 6  99928735.813 6                  24403661.547
  24403665.117    24403664.656                          38.600          37.100

 134563856.721 6 104854993.959 5 100486023.757 6  25606656.781
  25606663.102    25606662.457    25606660.609          39.700          35.300
        37.700
 131544236.485 6 102312162.709 4                  24608138.398    24608136.836
  24608141.219    24608139.930                          38.800          29.900

 108436260.268 6                                  20320900.039    20320898.445
                                                        38.600

 109532780.733 8  85192168.370 8                  20461649.070    20461648.570
  20461647.184    20461646.898                          50.700          48.300

 127119046.331 6  98870387.926 5                  23738589.352    23738588.668
  23738588.617    23738588.695                          41.500          33.700

 129431924.801 6 100669192.090 6                  24238440.586    24238439.484
  24238444.699    24238444.242                          40.400          40.400

 125924664.746 7  97941424.473 6                  23565084.633    23565083.934
  23565085.723    23565086.051                          42.800          41.200

 122134720.064 7  94993714.510 7                  22863866.953    22863865.711
  22863868.273    22863868.637                          43.600          43.400

 127729137.393 4  99344624.983 5                  23885996.336    23885994.238
  23886002.375    23886001.980                          29.600          32.200

 106329401.246 8  82700630.338 8                  19870160.453    19870159.164
  19870157.449    19870157.770                          51.100          48.900

 107623133.008 8  83706867.958 8                  20161444.281    20161443.883
  20161440.379    20161441.145                          50.900          50.400

 129525929.357 6                                  24213511.141    24213510.168
                                                        36.600

 151375518.076 5                 113040121.307 5  28805817.961
                                  28805820.129          35.100
        30.400
 123482684.737 8                  92211079.589 8  23497975.359
                                  23497973.695          48.800
        52.700
 129080095.400 8                  96390952.815 8  24563130.688
                                  24563127.445          49.300
        50.200
 124813061.479 8                  93204540.109 8  23751140.305
                                  23751138.953          48.000
        51.700
 144972773.383 6                 108258860.234 6  27587417.102
                                  27587421.762          41.800
        40.900
 126299656.806 8                  94314641.190 8  24034028.039
                                  24034024.492          49.300
        50.700
 146769615.763 6                 109600652.721 6  27929337.117
                                  27929335.656          41.400
        41.200
 23 11  9 13  6 49.0000000  0 28G05G10G13G15G18G23G24G27G29G32R05R06
                                R07R08R09R15R16R20R21R22R23E03E07E08
                                E13E15E26E33
 124350993.095 7  96896801.754 7                  23663219.578
  23663222.879    23663222.629                          43.000          42.900

 126998126.209 7  98959563.576 6  94836237.182 7  24166942.625
  24166945.336    24166945.496    24166941.563          43.800          41.200
        45.800
 120709137.381 7  94058984.10744                  22970194.930
                  22970196.652                          43.700          28.000

 106934609.218 8  83325663.296 8                  20348984.813
  20348984.211    20348984.535                          49.000          48.700

 107128828.158 8  83477005.913 8  79998797.089 9  20385942.734
  20385941.570    20385941.523    20385942.754          49.700          53.800
        56.700
 112494251.020 7  87657861.887 8  84005443.196 8  21406949.367
  21406948.867    21406949.020    21406950.191          47.700          48.400
        51.700
 111360981.405 7  86774817.460 8  83159184.005 8  21191288.672
  21191291.777    21191291.789    21191289.547          47.800          48.300
        52.400
 129073627.797 6 100576959.749 6  96386239.056 7  24561927.977
  24561931.473    24561931.520    24561928.813          39.500          39.200
        44.500
 128245394.155 6  99931363.654 6                  24404303.305
  24404307.094    24404306.434                          38.800          37.400

 134560769.299 6 104852588.187 6 100483718.227 6  25606069.820
  25606075.922    25606074.914    25606072.832          39.600          36.000
        37.700
 131547325.917 6 102314565.628 4                  24608716.523    24608715.313
  24608717.750    24608717.895                          39.600          29.100

 108437874.975 6                                  20321201.758    20321200.887
                                                        38.300

 109531741.685 8  85191360.218 8                  20461454.891    20461454.438
  20461453.629    20461452.734                          50.800          48.400

 127116346.118 6  98868287.770 5                  23738084.172    23738084.109
  23738084.758    23738084.176                          41.500          34.100

 129428322.080 6 100666389.990 6                  24237765.844    24237765.188
  24237770.348    24237769.637                          40.200          40.300

 125925169.476 7  97941817.048 6                  23565178.469    23565177.820
  23565179.492    23565180.313                          42.800          40.800

 122132321.938 7  94991849.299 7                  22863417.758    22863416.625
  22863418.621    22863419.777                          43.600          43.400

 127733699.618 4  99348173.331 5                  23886849.563    23886847.535
  23886855.918    23886854.961                          29.100          32.500

 106331805.580 8  82702500.370 8                  19870609.438    19870608.523
  19870606.508    19870607.082                          51.000          49.200

 107621415.021 8  83705531.737 8                  20161123.344    20161122.051
  20161118.797    20161119.434                          50.500          49.900

 129521717.090 6                                  24212723.961    24212722.930
                                                        36.100

 151378121.525 5                 113042065.397 4  28806313.258
                                  28806315.570          34.400
        29.100
 123482119.214 8                  92210657.281 8  23497867.719
                                  23497866.195          48.300
        52.500
 129081907.355 8                  96392305.888 8  24563475.398
                                  24563472.145          49.000
        50.100
 124814498.130 8                  93205612.923 8  23751413.789
                                  23751412.234          48.400
        51.500
 144975726.974 6                 108261065.828 6  27587979.195
                                  27587983.648          41.600
        40.500
 126298228.545 8                  94313574.633 8  24033756.141
                                  24033752.688          48.900
        50.500
 146766765.506 6                 109598524.264 6  27928794.773
                                  27928793.434          41.400
        41.100
 23 11  9 13  6 50.0000000  0 28G05G10G13G15G18G23G24G27G29G32R05R06
                                R07R08R09R15R16R20R21R22R23E03E07E08
                                E13E15E26E33
 124353498.517 7  96898754.037 7                  23663696.188
  23663699.871    23663699.418                          43.000          42.400

 126995648.469 7  98957632.870 6  94834386.924 7  24166470.859
  24166473.719    24166474.043    24166470.113          43.800          41.300
        45.900
 120712468.656 7  94061579.90644                  22970828.750
                  22970830.656                          44.100          28.400

 106936288.675 8  83326971.958 8                  20349304.469
  20349303.695    20349304.137                          49.100          48.700

 107128368.076 8  83476647.411 8  79998453.529 9  20385854.992
  20385853.988    20385853.961    20385855.145          49.700          53.800
        57.300
 112492585.263 7  87656563.889 8  84004199.292 8  21406632.766
  21406632.031    21406632.176    21406633.195          47.900          48.200
        51.900
 111358925.840 7  86773215.723 8  83157649.007 8  21190897.680
  21190900.711    21190900.676    21190898.359          47.900          48.500
        52.100
 129072747.527 6 100576273.816 6  96385581.705 7  24561760.734
  24561764.168    24561763.914    24561761.215          39.800          38.800
        44.600
 128248766.590 6  99933991.511 6                  24404945.102
  24404949.199    24404948.387                          38.900          37.600

 134557682.054 6 104850182.557 5 100481412.848 6  25605482.305
  25605488.797    25605487.484    25605485.496          39.600          35.800
        37.500
 131550415.221 6 102316968.419 4                  24609294.383    24609293.434
  24609296.039    24609295.703                          39.500          28.800

 108439489.906 6                                  20321504.039    20321503.785
                                                        38.700

 109530703.003 8  85190552.363 8                  20461261.219    20461260.383
  20461259.313    20461258.668                          50.700          48.100

 127113646.163 6  98866187.800 5                  23737579.422    23737580.270
  23737580.629    23737580.133                          41.700          33.900

 129424719.295 6 100663587.815 6                  24237090.703    24237090.625
  24237095.398    24237095.016                          39.800          39.900

 125925675.007 7  97942210.219 6                  23565273.258    23565272.477
  23565274.066    23565274.816                          43.000          40.400

 122129924.373 7  94989984.518 7                  22862969.031    22862967.727
  22862969.824    22862970.957                          43.100          42.900

 127738261.954 4  99351721.783 5                  23887702.688    23887700.531
  23887707.684    23887708.113                          29.400          32.800

 106334210.741 8  82704371.063 8                  19871059.680    19871057.973
  19871055.230    19871056.535                          51.100          49.000

 107619697.869 8  83704196.176 8                  20160801.516    20160800.379
  20160797.004    20160797.609                          50.900          50.200

 129517504.996 6                                  24211936.438    24211935.336
                                                        36.400

 151380724.955 5                 113044009.573 4  28806808.984
                                  28806810.887          33.600
        29.300
 123481554.011 8                  92210235.213 8  23497760.156
                                  23497758.559          48.400
        52.300
 129083719.474 8                  96393659.107 8  24563820.008
                                  24563816.898          49.100
        50.300
 124815935.185 8                  93206686.056 8  23751687.203
                                  23751685.637          48.500
        51.500
 144978680.671 6                 108263271.511 6  27588541.398
                                  27588545.758          41.300
        40.400
 126296800.653 8                  94312508.348 8  24033484.656
                                  24033481.051          49.300
        50.500
 146763915.300 6                 109596395.863 6  27928252.305
                                  27928251.051          41.200
        41.500
 23 11  9 13  6 51.0000000  0 28G05G10G13G15G18G23G24G27G29G32R05R06
                                R07R08R09R15R16R20R21R22R23E03E07E08
                                E13E15E26E33
 124356004.063 7  96900706.396 7                  23664173.406
  23664176.652    23664176.262                          43.200          42.600

 126993170.679 7  98955702.131 6  94832536.622 7  24165999.805
  24166002.410    24166002.527    24165998.547          43.300          41.400
        45.900
 120715800.034 7  94064175.77944                  22971463.266
                  22971464.484                          44.000          26.100

 106937968.503 8  83328280.915 8                  20349623.883
  20349623.316    20349623.836                          48.700          48.500

 107127908.598 8  83476289.384 8  79998110.405 9  20385767.406
  20385766.578    20385766.398    20385767.672          49.500          53.800
        57.300
 112490919.641 8  87655266.001 8  84002955.483 8  21406315.828
  21406314.965    21406315.316    21406316.215          48.000          48.100
        51.600
 111356870.850 7  86771614.425 8  83156114.431 8  21190506.203
  21190509.746    21190509.512    21190507.363          47.900          48.700
        52.000
 129071867.824 6 100575588.336 6  96384924.778 7  24561593.391
  24561596.137    24561596.484    24561593.793          39.600          39.100
        44.600
 128252138.960 6  99936619.327 6                  24405586.695
  24405590.973    24405590.297                          38.900          37.900

 134554594.891 6 104847776.957 5 100479107.491 6  25604894.641
  25604901.516    25604900.008    25604897.938          39.400          35.500
        37.600
 131553504.364 6 102319371.141 4                  24609872.031    24609871.289
  24609873.609    24609873.746                          40.400          28.400

 108441105.015 6                                  20321807.031    20321806.281
                                                        38.500

 109529664.671 8  85189744.758 8                  20461067.313    20461066.352
  20461065.133    20461064.660                          50.900          48.000

 127110946.405 6  98864087.992 5                  23737075.828    23737075.895
  23737075.918    23737075.832                          41.100          34.300

 129421116.347 6 100660785.537 6                  24236417.359    24236415.840
  24236420.582    24236420.207                          40.200          39.400

 125926181.307 7  97942604.017 6                  23565368.586    23565367.359
  23565369.363    23565369.434                          43.200          40.900

 122127527.290 7  94988120.139 7                  22862519.930    22862518.805
  22862521.805    22862522.066                          43.400          43.200

 127742824.244 5  99355270.236 5                  23888555.836    23888554.004
  23888560.762    23888561.422                          30.100          32.800

 106336616.669 8  82706242.330 8                  19871508.938    19871507.469
  19871505.555    19871506.070                          51.000          49.000

 107617981.479 8  83702861.218 8                  20160479.938    20160478.820
  20160474.930    20160476.051                          50.800          50.200

 129513293.050 5                                  24211148.633    24211147.668
                                                        35.900

 151383328.277 5                 113045953.671 4  28807304.039
                                  28807306.145          34.200
        29.400
 123480989.096 8                  92209813.357 8  23497652.789
                                  23497651.051          48.600
        52.400
 129085531.733 8                  96395012.406 8  24564164.945
                                  24564161.754          49.500
        50.300
 124817372.609 8                  93207759.454 8  23751960.563
                                  23751959.223          48.600
        51.500
 144981634.488 6                 108265477.261 6  27589103.188
                                  27589107.766          41.600
        40.000
 126295373.068 8                  94311442.287 8  24033212.773
                                  24033209.387          49.100
        50.800
 146761065.140 6                 109594267.472 6  27927710.016
                                  27927708.723          41.400
        41.800
 23 11  9 13  6 52.0000000  0 28G05G10G13G15G18G23G24G27G29G32R05R06
                                R07R08R09R15R16R20R21R22R23E03E07E08
                                E13E15E26E33
 124358509.721 7  96902658.842 7                  23664649.922
  23664653.105    23664653.172                          43.500          42.200

 126990692.863 7  98953771.350 6  94830686.297 7  24165527.750
  24165530.699    24165531.082    24165527.129          43.500          40.900
        45.500
 120719131.551 7  94066771.76544                  22972097.031
                  22972098.391                          44.000          28.100

 106939648.712 8  83329590.167 8                  20349943.773
  20349943.305    20349943.664                          49.100          48.200

 107127449.717 8  83475931.808 8  79997767.738 9  20385680.477
  20385679.223    20385679.246    20385680.391          49.800          53.500
        56.900
 112489254.145 8  87653968.221 8  84001711.771 8  21405998.906
  21405998.199    21405998.316    21405999.363          48.400          48.300
        51.900
 111354816.412 7  86770013.563 8  83154580.281 8  21190115.305
  21190118.945    21190118.555    21190116.352          47.700          48.600
        52.200
 129070988.683 6 100574903.287 6  96384268.278 7  24561426.563
  24561429.297    24561429.172    24561426.398          39.600          39.000
        45.100
 128255511.325 6  99939247.130 6                  24406228.680
  24406232.707    24406232.059                          38.800          37.900

 134551507.865 6 104845371.455 5 100476802.233 6  25604306.531
  25604313.355    25604312.574    25604310.426          39.500          35.500
        37.400
 131556593.361 6 102321773.693 4                  24610449.172    24610449.184
  24610451.992    24610451.590                          41.000          27.700

 108442720.374 6                                  20322110.727    20322108.883
                                                        38.600

 109528626.640 8  85188937.399 8                  20460873.289    20460872.547
  20460871.266    20460870.875                          50.600          48.200

 127108246.856 6  98861988.335 5                  23736572.195    23736571.930
  23736571.734    23736571.547                          41.300          33.800

 129417513.241 6 100657983.126 6                  24235742.234    24235740.910
  24235745.703    24235745.504                          39.700          38.700

 125926688.374 7  97942998.396 6                  23565463.406    23565462.309
  23565464.461    23565464.441                          43.100          41.300

 122125130.722 7  94986256.148 7                  22862070.664    22862070.164
  22862072.859    22862073.367                          43.000          43.200

 127747386.650 5  99358818.709 5                  23889409.727    23889407.352
  23889414.082    23889414.660                          30.700          32.700

 106339023.309 8  82708114.161 8                  19871958.500    19871957.266
  19871955.633    19871955.852                          50.900          49.100

 107616265.888 8  83701526.860 8                  20160157.984    20160157.457
  20160154.270    20160154.742                          50.400          50.000

 129509081.374 5                                  24210361.461    24210360.445
                                                        35.900

 151385931.529 5                 113047897.541 4  28807799.320
                                  28807801.457          33.800
        29.000
 123480424.462 8                  92209391.712 8  23497545.336
                                  23497543.645          48.500
        52.200
 129087344.123 8                  96396365.809 8  24564509.867
                                  24564506.719          49.500
        50.100
 124818810.422 8                  93208833.137 8  23752234.305
                                  23752232.867          48.300
        51.200
 144984588.373 6                 108267683.100 6  27589665.328
                                  27589669.949          41.100
        39.900
 126293945.809 8                  94310376.485 8  24032941.266
                                  24032937.777          49.100
        50.900
 146758214.996 6                 109592139.138 6  27927167.531
                                  27927166.141          41.100
        41.300
 23 11  9 13  6 53.0000000  0 28G05G10G13G15G18G23G24G27G29G32R05R06
                                R07R08R09R15R16R20R21R22R23E03E07E08
                                E13E15E26E33
 124361015.535 7  96904611.423 7                  23665127.148
  23665129.863    23665130.027                          43.300          42.500

 126988215.048 7  98951840.585 6  94828835.981 7  24165056.172
  24165059.527    24165059.539    24165055.648          43.500          40.800
        45.700
 120722463.230 7  94069367.86844                  22972730.758
                  22972732.430                          43.400          27.400

 106941329.349 8  83330899.749 8                  20350263.695
  20350262.914    20350263.355                          48.500          48.300

 107126991.488 8  83475574.741 8  79997425.548 9  20385592.813
  20385592.035    20385591.934    20385593.207          49.200          53.400
        57.200
 112487588.845 8  87652670.578 8  84000468.196 8  21405681.711
  21405681.016    21405681.391    21405682.387          48.100          48.200
        51.900
 111352762.580 7  86768413.187 8  83153046.579 8  21189724.523
  21189727.914    21189727.750    21189725.488          47.600          48.700
        52.200
 129070110.193 6 100574218.732 6  96383612.251 7  24561258.469
  24561262.121    24561262.035    24561259.371          39.700          39.200
        45.100
 128258883.695 6  99941874.924 6                  24406870.055
  24406874.555    24406873.926                          39.000          38.400

 134548420.974 6 104842966.119 5 100474497.084 6  25603719.313
  25603725.414    25603725.023    25603723.074          39.200          35.300
        37.700
 131559682.254 6 102324176.207 4                  24611027.031    24611026.805
  24611028.230    24611029.496                          41.300          27.100

 108444335.952 6                                  20322413.750    20322411.426
                                                        38.700

 109527589.016 8  85188130.355 8                  20460678.594    20460678.656
  20460677.066    20460676.969                          50.700          48.300

 127105547.562 6  98859888.870 5                  23736068.141    23736068.020
  23736068.527    23736067.441                          41.200          33.400

 129413910.071 6 100655180.673 6                  24235067.008    24235066.047
  24235071.684    24235070.637                          40.200          38.700

 125927196.299 7  97943393.454 6                  23565558.016    23565557.277
  23565559.145    23565559.605                          43.600          41.200

 122122734.686 7  94984392.574 7                  22861622.813    22861621.680
  22861624.289    22861624.898                          43.000          43.000

 127751949.095 5  99362367.306 5                  23890262.680    23890260.879
  23890268.395    23890267.773                          31.000          33.300

 106341430.772 8  82709986.626 8                  19872408.258    19872407.230
  19872405.680    19872405.809                          51.000          48.900

 107614551.127 8  83700193.161 8                  20159837.188    20159836.172
  20159832.707    20159833.500                          50.300          50.000

 129504869.818 5                                  24209575.195    24209573.285
                                                        35.900

 151388534.712 5                 113049841.537 4  28808294.617
                                  28808296.789          33.000
        28.600
 123479860.174 8                  92208970.328 8  23497437.758
                                  23497436.188          48.800
        51.800
 129089156.697 8                  96397719.355 8  24564854.797
                                  24564851.578          49.600
        50.000
 124820248.647 8                  93209907.135 8  23752507.938
                                  23752506.559          48.300
        51.600
 144987542.448 6                 108269889.058 6  27590227.453
                                  27590232.180          41.400
        39.800
 126292518.919 8                  94309310.949 8  24032669.758
                                  24032666.172          49.100
        50.900
 146755364.929 6                 109590010.829 6  27926625.391
                                  27926623.996          41.400
        41.300
 23 11  9 13  6 54.0000000  0 28G05G10G13G15G18G23G24G27G29G32R05R06
                                R07R08R09R15R16R20R21R22R23E03E07E08
                                E13E15E26E33
 124363521.471 7  96906564.085 7                  23665603.680
  23665606.500    23665607.043                          43.200          42.300

 126985737.221 7  98949909.823 6  94826985.650 7  24164584.781
  24164587.902    24164588.148    24164584.086          43.400          41.000
        45.800
 120725795.037 7  94071964.08244                  22973365.250
                  22973366.355                          43.300          26.400

 106943010.370 8  83332209.632 8                  20350583.391
  20350583.016    20350583.230                          48.700          48.400

 107126533.880 8  83475218.169 8  79997083.830 9  20385505.711
  20385504.973    20385504.809    20385506.125          49.400          53.600
        56.800
 112485923.687 8  87651373.048 8  83999224.734 8  21405364.281
  21405364.270    21405364.461    21405365.500          48.000          48.500
        51.800
 111350709.333 7  86766813.261 8  83151513.311 8  21189333.789
  21189337.297    21189337.004    21189334.820          47.500          48.700
        52.200
 129069232.270 6 100573534.639 6  96382956.665 7  24561091.656
  24561094.809    24561094.883    24561092.207          39.500          39.600
        45.000
 128262256.007 6  99944502.722 6                  24407511.898
  24407516.023    24407515.926                          39.200          38.100

 134545334.214 6 104840560.839 5 100472192.021 6  25603131.820
  25603137.598    25603137.672    25603135.523          38.800          35.300
        37.800
 131562770.989 6 102326578.573 4                  24611605.313    24611604.926
  24611608.734    24611607.262                          41.300          26.900

 108445951.728 6                                  20322716.195    20322714.453
                                                        38.600

 109526551.731 8  85187323.582 8                  20460485.438    20460484.934
  20460483.402    20460483.066                          50.600          48.400

 127102848.464 6  98857789.576 5                  23735564.094    23735563.938
  23735563.984    23735563.457                          40.900          33.300

 129410306.777 6 100652378.134 6                  24234392.125    24234391.336
  24234396.902    24234395.711                          40.200          38.800

 125927704.986 7  97943789.092 6                  23565653.828    23565652.301
  23565654.895    23565654.906                          43.200          40.900

 122120339.171 7  94982529.362 7                  22861173.992    22861173.336
  22861175.660    22861176.488                          43.200          43.000

 127756511.563 5  99365915.900 5                  23891115.875    23891114.313
  23891120.758    23891120.824                          31.500          32.700

 106343839.023 8  82711859.713 8                  19872858.570    19872857.270
  19872855.160    19872855.848                          51.200          49.000

 107612837.182 8  83698860.091 8                  20159515.688    20159515.160
  20159511.082    20159512.457                          50.700          49.900

 129500658.512 6                                  24208787.547    24208785.855
                                                        36.100

 151391137.821 5                 113051785.34814  28808790.242
                                  28808791.965          33.300
        27.500
 123479296.180 8                  92208549.163 8  23497330.297
                                  23497328.988          48.700
        52.000
 129090969.437 8                  96399073.023 8  24565199.469
                                  24565196.508          49.500
        50.100
 124821687.274 8                  93210981.432 8  23752781.609
                                  23752780.246          48.600
        51.400
 144990496.615 6                 108272095.086 6  27590789.422
                                  27590794.227          41.200
        39.900
 126291092.367 8                  94308245.675 8  24032398.242
                                  24032394.770          48.700
        50.800
 146752514.910 6                 109587882.567 6  27926082.961
                                  27926081.699          41.500
        41.300
 23 11  9 13  6 55.0000000  0 28G05G10G13G15G18G23G24G27G29G32R05R06
                                R07R08R09R15R16R20R21R22R23E03E07E08
                                E13E15E26E33
 124366027.562 7  96908516.887 7                  23666080.469
  23666083.711    23666083.969                          43.000          42.300

 126983259.427 7  98947979.045 6  94825135.343 7  24164112.609
  24164116.148    24164116.641    24164112.457          43.600          40.700
        45.900
 120729127.025 7  94074560.43144                  22973999.273
                  22974000.387                          43.600          27.300

 106944691.835 8  83333519.871 8                  20350903.453
  20350903.219    20350903.215                          48.600          48.800

 107126076.933 8  83474862.093 8  79996742.601 9  20385419.094
  20385417.938    20385417.898    20385419.125          49.400          53.700
        56.600
 112484258.715 7  87650075.667 8  83997981.418 8  21405047.813
  21405047.363    21405047.742    21405048.684          47.800          48.200
        51.300
 111348656.718 7  86765213.817 8  83149980.511 8  21188943.352
  21188946.633    21188946.504    21188944.203          47.900          48.800
        52.300
 129068354.997 6 100572851.041 6  96382301.547 7  24560924.492
  24560928.105    24560927.973    24560925.383          39.800          39.200
        45.200
 128265628.385 6  99947130.533 6                  24408153.383
  24408158.148    24408157.629                          38.300          38.300

 134542247.614 6 104838155.684 5 100469887.103 6  25602544.672
  25602550.316    25602550.305    25602548.469          38.600          35.300
        37.400
 131565859.670 6 102329301.81814                  24612183.180    24612182.645
  24612186.395    24612185.113                          41.700          25.100

 108447567.814 6                                  20323019.313    20323017.000
                                                        38.400

 109525514.845 8  85186517.119 8                  20460291.695    20460291.230
  20460289.961    20460289.434                          50.700          48.500

 127100149.597 6  98855690.458 5                  23735060.094    23735059.434
  23735059.883    23735059.434                          41.000          33.600

 129406703.422 6 100649575.559 6                  24233718.313    24233716.305
  24233719.609    24233720.730                          39.900          39.000

 125928214.427 7  97944185.361 6                  23565749.563    23565748.168
  23565749.012    23565750.152                          43.600          40.100

 122117944.164 7  94980666.620 7                  22860725.469    22860724.813
  22860727.445    22860728.008                          43.100          43.100

 127761074.190 5  99369464.616 5                  23891969.242    23891967.660
  23891973.637    23891974.148                          31.200          32.600

 106346248.127 8  82713733.448 8                  19873308.930    19873307.543
  19873305.363    19873306.035                          51.200          48.600

 107611124.062 8  83697527.660 8                  20159195.000    20159194.242
  20159191.020    20159191.559                          51.000          50.000

 129496447.415 6                                  24208000.031    24207998.477
                                                        36.400

 151393740.917 5                 113053729.249 4  28809285.320
                                  28809287.234          32.600
        25.200
 123478732.544 8                  92208128.267 8  23497223.141
                                  23497221.660          48.800
        51.700
 129092782.362 8                  96400426.833 8  24565544.742
                                  24565541.520          49.100
        49.900
 124823126.335 8                  93212056.056 8  23753055.609
                                  23753054.168          48.700
        51.400
 144993450.920 6                 108274301.232 6  27591351.508
                                  27591356.438          40.900
        39.900
 126289666.208 8                  94307180.675 8  24032126.813
                                  24032123.398          48.900
        50.800
 146749665.002 6                 109585754.390 6  27925540.648
                                  27925539.133          41.800
        40.800
 23 11  9 13  6 56.0000000  0 28G05G10G13G15G18G23G24G27G29G32R05R06
                                R07R08R09R15R16R20R21R22R23E03E07E08
                                E13E15E26E33
 124368533.751 7  96910469.753 7                  23666557.797
  23666560.645    23666560.840                          43.000          42.500

 126980781.563 7  98946048.259 6  94823284.993 7  24163641.641
  24163645.086    24163645.172    24163641.031          43.700          40.900
        46.400
 120732459.113 7  94077156.87044                  22974633.320
                  22974634.402                          43.200          26.700

 106946373.651 8  83334830.370 8                  20351223.352
  20351223.109    20351223.340                          49.200          48.600

 107125620.546 8  83474506.479 8  79996401.789 9  20385332.141
  20385331.063    20385331.090    20385332.281          49.600          53.900
        56.700
 112482593.866 8  87648778.374 8  83996738.169 8  21404731.125
  21404730.926    21404730.879    21404731.961          48.100          48.500
        51.100
 111346604.630 7  86763614.784 8  83148448.113 8  21188552.656
  21188556.008    21188555.934    21188553.652          47.700          48.500
        52.100
 129067478.252 6 100572167.865 6  96381646.838 7  24560757.781
  24560761.352    24560761.195    24560758.527          40.100          39.400
        45.200
 128269000.676 6  99949758.278 6                  24408795.555
  24408800.094    24408799.574                          38.700          38.600

 134539161.113 6 104835750.641 5 100467582.239 6  25601957.797
  25601963.281    25601963.000    25601961.254          39.200          35.300
        37.400
 131568948.107 6 102331703.89313                  24612761.344    24612760.367
  24612763.375    24612762.953                          41.900          23.800

 108449184.051 6                                  20323321.859    20323319.824
                                                        38.400

 109524478.265 8  85185710.881 8                  20460097.852    20460097.578
  20460096.328    20460095.906                          50.900          48.200

 127097450.881 6  98853591.468 5                  23734555.367    23734555.734
  23734555.125    23734555.574                          41.100          33.800

 129403099.902 6 100646772.813 6                  24233042.656    24233041.531
  24233045.281    24233045.855                          39.900          38.800

 125928724.573 7  97944582.135 6                  23565843.891    23565843.227
  23565844.664    23565845.500                          42.600          40.700

 122115549.670 7  94978804.231 7                  22860277.477    22860276.488
  22860278.973    22860279.785                          43.000          42.600

 127765636.795 5  99373013.272 5                  23892823.023    23892820.992
  23892826.484    23892827.219                          31.600          33.000

 106348657.955 8  82715607.755 8                  19873758.984    19873757.859
  19873755.871    19873756.289                          50.800          48.900

 107609411.711 8  83696195.833 8                  20158874.055    20158873.406
  20158870.367    20158870.762                          51.200          50.100

 129492236.518 6                                  24207212.047    24207211.344
                                                        36.600

 151396343.851 5                                  28809780.422
                                                        33.200

 123478169.156 8                  92207707.558 8  23497116.016
                                  23497114.410          48.900
        51.900
 129094595.397 8                  96401780.722 8  24565889.852
                                  24565886.473          49.700
        50.000
 124824565.731 8                  93213130.928 8  23753329.531
                                  23753328.125          48.400
        51.400
 144996405.332 6                 108276507.422 6  27591913.727
                                  27591918.730          41.000
        39.800
 126288240.332 8                  94306115.890 8  24031855.297
                                  24031851.965          48.800
        50.900
 146746815.071 6                 109583626.186 6  27924998.313
                                  27924996.758          41.800
        41.100
 23 11  9 13  6 57.0000000  0 28G05G10G13G15G18G23G24G27G29G32R05R06
                                R07R08R09R15R16R20R21R22R23E03E07E08
                                E13E15E26E33
 124371040.110 7  96912422.755 7                  23667034.555
  23667037.578    23667037.676                          42.900          43.000

 126978303.739 7  98944117.463 6  94821434.671 7  24163169.969
  24163173.262    24163173.770    24163169.613          43.600          40.900
        46.400
 120735791.373 7  94079753.41544                  22975266.891
                  22975268.449                          43.000          27.300

 106948055.909 8  83336141.207 8                  20351543.656
  20351543.242    20351543.258                          48.800          48.500

 107125164.831 8  83474151.368 8  79996061.480 9  20385245.570
  20385244.461    20385244.422    20385245.559          49.300          53.700
        56.800
 112480929.191 8  87647481.240 8  83995495.080 8  21404414.344
  21404413.859    21404414.059    21404415.191          48.100          48.700
        51.200
 111344553.172 7  86762016.236 8  83146916.178 8  21188162.172
  21188165.676    21188165.535    21188163.418          47.600          48.700
        52.300
 129066602.142 6 100571485.176 6  96380992.585 7  24560591.000
  24560594.797    24560594.547    24560591.688          40.400          39.400
        45.100
 128272373.000 6  99952386.054 6                  24409437.695
  24409441.590    24409441.410                          39.000          38.400

 134536074.767 6 104833345.677 5 100465277.496 6  25601370.531
  25601375.906    25601375.621    25601373.512          39.400          34.700
        37.300
 131572036.427 6 102333779.949 3                  24613338.922    24613337.977
                  24613340.750                          41.700          21.100

 108450800.543 6                                  20323624.469    20323622.895
                                                        38.900

 109523442.099 8  85184904.966 8                  20459904.586    20459904.063
  20459902.383    20459902.363                          51.000          48.300

 127094752.398 6  98851492.636 5                  23734050.797    23734051.961
  23734052.105    23734051.520                          40.700          34.100

 129399496.278 6 100643970.021 6                  24232367.703    24232366.750
  24232370.918    24232371.039                          39.500          38.400

 125929235.581 7  97944979.551 6                  23565939.969    23565939.066
  23565941.961    23565941.254                          43.300          41.100

 122113155.732 7  94976942.294 7                  22859829.109    22859828.285
  22859830.672    22859831.629                          42.900          42.600

 127770199.524 5  99376562.043 5                  23893675.734    23893674.730
  23893680.059    23893680.527                          31.500          33.000

 106351068.590 8  82717482.692 8                  19874209.266    19874208.281
  19874206.309    19874206.715                          50.900          49.100

 107607700.189 8  83694864.641 8                  20158553.320    20158552.816
  20158549.266    20158550.145                          50.900          50.000

 129488025.844 6                                  24206426.172    24206424.609
                                                        36.500

 151398946.781 5                                  28810275.813
                                                        32.200

 123477606.120 8                  92207287.107 8  23497008.906
                                  23497007.316          49.000
        51.900
 129096408.625 8                  96403134.750 8  24566234.906
                                  24566231.488          49.800
        50.300
 124826005.568 8                  93214206.135 8  23753603.500
                                  23753602.105          48.300
        51.600
 144999359.880 6                 108278713.726 6  27592475.953
                                  27592481.059          41.000
        40.400
 126286814.836 8                  94305051.395 8  24031584.297
                                  24031580.707          48.600
        51.300
 146743965.240 7                 109581498.072 6  27924456.289
                                  27924454.598          42.000
        41.200
 23 11  9 13  6 58.0000000  0 28G05G10G13G15G18G23G24G27G29G32R05R06
                                R07R08R09R15R16R20R21R22R23E03E07E08
                                E13E15E26E33
 124373546.544 7  96914375.827 7                  23667511.031
  23667514.637    23667514.539                          43.200          42.800

 126975825.869 7  98942186.671 6  94819584.313 7  24162698.703
  24162701.801    24162702.316    24162698.125          43.700          41.200
        46.300
 120739123.778 7  94082350.10344                  22975901.516
                  22975902.605                          42.900          26.000

 106949738.522 8  83337452.346 8                  20351863.992
  20351863.102    20351863.625                          48.700          48.300

 107124709.689 8  83473796.714 8  79995721.600 9  20385158.805
  20385157.957    20385157.730    20385159.023          49.300          53.900
        56.900
 112479264.646 8  87646184.178 8  83994252.063 8  21404097.672
  21404097.059    21404097.402    21404098.445          48.800          48.800
        51.200
 111342502.270 7  86760418.139 8  83145384.652 8  21187771.867
  21187775.398    21187775.172    21187773.066          47.300          48.700
        52.200
 129065726.585 6 100570802.896 6  96380338.758 7  24560424.867
  24560427.930    24560428.020    24560425.133          39.900          39.900
        45.300
 128275745.258 6  99955013.787 6                  24410078.313
  24410083.574    24410083.141                          39.000          38.600

 134532988.517 6 104830940.806 5 100462972.803 6  25600783.086
  25600788.672    25600788.164    25600786.375          39.500          35.000
        37.700
 131575124.576 6                                  24613915.180    24613915.492
                                                        41.500

 108452417.210 6                                  20323927.164    20323925.961
                                                        38.900

 109522406.248 8  85184099.306 8                  20459711.094    20459710.449
  20459709.082    20459708.793                          51.300          48.200

 127092054.109 6  98849393.953 5                  23733547.844    23733547.641
  23733548.594    23733547.781                          41.200          34.000

 129395892.540 6 100641167.108 6                  24231693.055    24231692.129
  24231696.012    24231696.309                          39.800          38.900

 125929747.316 7  97945377.603 6                  23566035.117    23566035.039
  23566036.531    23566037.078                          43.700          40.900

 122110762.294 7  94975080.719 7                  22859381.031    22859380.117
  22859382.434    22859383.613                          42.800          42.600

 127774762.241 5  99380110.804 5                  23894529.430    23894528.141
  23894532.652    23894533.879                          31.900          33.300

 106353479.974 8  82719358.218 8                  19874660.422    19874658.910
  19874656.863    19874657.430                          51.000          48.800

 107605989.445 8  83693534.062 8                  20158233.008    20158232.383
  20158228.406    20158229.668                          50.800          50.200

 129483815.313 6                                  24205638.836    24205637.254
                                                        36.900

 151401549.610 5                                  28810771.195
                                                        32.900

 123477043.358 8                  92206866.854 8  23496901.742
                                  23496900.223          48.600
        52.200
 129098221.988 8                  96404488.870 8  24566579.953
                                  24566576.574          49.500
        50.600
 124827445.762 8                  93215281.596 8  23753877.641
                                  23753876.164          48.300
        52.000
 145002314.514 6                 108280920.111 6  27593038.234
                                  27593043.211          40.600
        40.800
 126285389.657 8                  94303987.145 8  24031313.008
                                  24031309.527          48.400
        51.500
 146741115.420 6                 109579369.934 6  27923914.031
                                  27923912.082          41.900
        41.100
 23 11  9 13  6 59.0000000  0 28G05G10G13G15G18G23G24G27G29G32R05R06
                                R07R08R09R15R16R20R21R22R23E03E07E08
                                E13E15E26E33
 124376053.148 7  96916329.008 7                  23667988.289
  23667991.434    23667991.707                          42.700          42.600

 126973348.004 7  98940255.870 6  94817733.953 7  24162227.102
  24162230.277    24162230.906    24162226.668          43.900          41.300
        46.300
 120742456.328 7  94084946.88744                  22976535.516
                  22976536.754                          42.700          26.400

 106951421.571 8  83338763.801 8                  20352184.109
  20352183.652    20352183.809                          48.800          48.200

 107124255.219 8  83473442.579 9  79995382.221 9  20385071.953
  20385071.465    20385071.215    20385072.500          49.100          54.100
        57.200
 112477600.284 8  87644887.275 8  83993009.204 8  21403780.570
  21403780.402    21403780.605    21403781.637          48.600          49.000
        51.600
 111340451.982 7  86758820.515 8  83143853.597 8  21187382.031
  21187385.270    21187385.113    21187382.836          47.500          48.800
        52.100
 129064851.653 6 100570121.148 6  96379685.404 7  24560258.508
  24560261.891    24560261.629    24560258.750          40.200          40.100
        45.200
 128279117.548 6  99957641.547 6                  24410720.453
  24410724.996    24410724.605                          39.200          38.600

 134529902.437 6 104828536.076 5 100460668.273 6  25600195.828
  25600201.414    25600200.980    25600199.047          39.700          35.100
        38.300
 131578212.611 6                                  24614493.914    24614493.074
                                                        41.400

 108454034.127 6                                  20324230.789    20324229.160
                                                        38.800

 109521370.791 8  85183293.956 8                  20459517.875    20459517.004
  20459515.770    20459515.336                          51.200          48.100

 127089356.024 6  98847295.463 5                  23733043.734    23733044.191
  23733044.457    23733043.781                          40.900          33.700

 129392288.695 6 100638364.156 6                  24231018.914    24231017.305
  24231021.172    24231021.293                          40.500          38.900

 125930259.923 7  97945776.267 6                  23566131.180    23566130.422
  23566132.539    23566132.930                          43.200          41.100

 122108369.407 7  94973219.590 7                  22858933.305    22858932.121
  22858935.105    22858935.621                          42.600          42.900

 127779325.083 5  99383659.716 5                  23895382.539    23895381.598
  23895386.246    23895387.398                          32.100          32.900

 106355892.159 8  82721234.355 8                  19875111.188    19875109.613
  19875107.918    19875108.262                          51.100          48.700

 107604279.532 8  83692204.129 8                  20157912.820    20157911.996
  20157908.395    20157909.355                          50.800          49.900

 129479605.015 6                                  24204851.617    24204850.215
                                                        36.600

 151404152.435 5                                  28811266.813
                                                        32.000

 123476480.926 8                  92206446.860 8  23496794.789
                                  23496793.250          48.700
        52.000
 129100035.529 8                  96405843.138 8  24566925.063
                                  24566921.727          49.800
        50.300
 124828886.395 8                  93216357.392 8  23754151.641
                                  23754150.297          48.600
        51.500
 145005269.309 6                 108283126.601 6  27593600.508
                                  27593605.609          41.100
        40.500
 126283964.843 8                  94302923.156 8  24031041.906
                                  24031038.363          48.600
        51.400
 146738265.658 7                 109577241.873 6  27923371.773
                                  27923369.770          42.400
        40.800
